{
"type": "FeatureCollection",
"crs": { "type": "name", "properties": { "name": "urn:ogc:def:crs:OGC:1.3:CRS84" } },
                                                                                
"features": [
{ "type": "Feature", "properties": { "VILLAGE_ID": 1, "NAME": "Darbahn", "BLOCK_NAME": "Dhar Kalan", "SUB_DISTRI": "Dhar Kalan", "DISTRICT": "Gurdaspur", "STATE_UT": "Punjab", "C_CODE01": "0301000100000100", "LEVEL": "Village" }, "geometry": { "type": "Point", "coordinates": [ 75.853376675067253, 32.4798186249552 ] } },
{ "type": "Feature", "properties": { "VILLAGE_ID": 2, "NAME": "Darkha Bungla", "BLOCK_NAME": "Dhar Kalan", "SUB_DISTRI": "Dhar Kalan", "DISTRICT": "Gurdaspur", "STATE_UT": "Punjab", "C_CODE01": "0301000100000200", "LEVEL": "Village" }, "geometry": { "type": "Point", "coordinates": [ 75.839139829814329, 32.479667100544447 ] } },
{ "type": "Feature", "properties": { "VILLAGE_ID": 3, "NAME": "Sarti", "BLOCK_NAME": "Dhar Kalan", "SUB_DISTRI": "Dhar Kalan", "DISTRICT": "Gurdaspur", "STATE_UT": "Punjab", "C_CODE01": "0301000100000300", "LEVEL": "Village" }, "geometry": { "type": "Point", "coordinates": [ 75.838191782960294, 32.465892040711331 ] } },
{ "type": "Feature", "properties": { "VILLAGE_ID": 4, "NAME": "Phangota", "BLOCK_NAME": "Dhar Kalan", "SUB_DISTRI": "Dhar Kalan", "DISTRICT": "Gurdaspur", "STATE_UT": "Punjab", "C_CODE01": "0301000100001000", "LEVEL": "Village" }, "geometry": { "type": "Point", "coordinates": [ 75.8159661941351, 32.452485536880332 ] } },
{ "type": "Feature", "properties": { "VILLAGE_ID": 5, "NAME": "Dukhaniyali", "BLOCK_NAME": "Dhar Kalan", "SUB_DISTRI": "Dhar Kalan", "DISTRICT": "Gurdaspur", "STATE_UT": "Punjab", "C_CODE01": "0301000100000400", "LEVEL": "Village" }, "geometry": { "type": "Point", "coordinates": [ 75.86839486455419, 32.460832284204791 ] } },
{ "type": "Feature", "properties": { "VILLAGE_ID": 6, "NAME": "Ghar", "BLOCK_NAME": "Dhar Kalan", "SUB_DISTRI": "Dhar Kalan", "DISTRICT": "Gurdaspur", "STATE_UT": "Punjab", "C_CODE01": "0301000100000500", "LEVEL": "Village" }, "geometry": { "type": "Point", "coordinates": [ 75.885040434015849, 32.449182653529896 ] } },
{ "type": "Feature", "properties": { "VILLAGE_ID": 7, "NAME": "Barsudhal", "BLOCK_NAME": "Dhar Kalan", "SUB_DISTRI": "Dhar Kalan", "DISTRICT": "Gurdaspur", "STATE_UT": "Punjab", "C_CODE01": "0301000100000600", "LEVEL": "Village" }, "geometry": { "type": "Point", "coordinates": [ 75.862469299755418, 32.445938172896284 ] } },
{ "type": "Feature", "properties": { "VILLAGE_ID": 8, "NAME": "Thara Uparla", "BLOCK_NAME": "Dhar Kalan", "SUB_DISTRI": "Dhar Kalan", "DISTRICT": "Gurdaspur", "STATE_UT": "Punjab", "C_CODE01": "0301000100002200", "LEVEL": "Village" }, "geometry": { "type": "Point", "coordinates": [ 75.776726377017354, 32.428111524011648 ] } },
{ "type": "Feature", "properties": { "VILLAGE_ID": 9, "NAME": "Nalloh", "BLOCK_NAME": "Dhar Kalan", "SUB_DISTRI": "Dhar Kalan", "DISTRICT": "Gurdaspur", "STATE_UT": "Punjab", "C_CODE01": "0301000100000900", "LEVEL": "Village" }, "geometry": { "type": "Point", "coordinates": [ 75.849903783309159, 32.426971293917113 ] } },
{ "type": "Feature", "properties": { "VILLAGE_ID": 10, "NAME": "Dunera", "BLOCK_NAME": "Dhar Kalan", "SUB_DISTRI": "Dhar Kalan", "DISTRICT": "Gurdaspur", "STATE_UT": "Punjab", "C_CODE01": "0301000100000700", "LEVEL": "Village" }, "geometry": { "type": "Point", "coordinates": [ 75.897622020725564, 32.426196578939823 ] } },
{ "type": "Feature", "properties": { "VILLAGE_ID": 11, "NAME": "Chamrour", "BLOCK_NAME": "Dhar Kalan", "SUB_DISTRI": "Dhar Kalan", "DISTRICT": "Gurdaspur", "STATE_UT": "Punjab", "C_CODE01": "0301000100002100", "LEVEL": "Village" }, "geometry": { "type": "Point", "coordinates": [ 75.79931198308779, 32.435973901239294 ] } },
{ "type": "Feature", "properties": { "VILLAGE_ID": 12, "NAME": "Bhamlada", "BLOCK_NAME": "Dhar Kalan", "SUB_DISTRI": "Dhar Kalan", "DISTRICT": "Gurdaspur", "STATE_UT": "Punjab", "C_CODE01": "0301000100000800", "LEVEL": "Village" }, "geometry": { "type": "Point", "coordinates": [ 75.865755603997627, 32.431198980503162 ] } },
{ "type": "Feature", "properties": { "VILLAGE_ID": 13, "NAME": "Dhar Kalan", "BLOCK_NAME": "Dhar Kalan", "SUB_DISTRI": "Dhar Kalan", "DISTRICT": "Gurdaspur", "STATE_UT": "Punjab", "C_CODE01": "0301000100001900", "LEVEL": "Village" }, "geometry": { "type": "Point", "coordinates": [ 75.821195470013805, 32.412168046892461 ] } },
{ "type": "Feature", "properties": { "VILLAGE_ID": 14, "NAME": "Hardo Saran", "BLOCK_NAME": "Dhar Kalan", "SUB_DISTRI": "Dhar Kalan", "DISTRICT": "Gurdaspur", "STATE_UT": "Punjab", "C_CODE01": "0301000100002000", "LEVEL": "Village" }, "geometry": { "type": "Point", "coordinates": [ 75.806038632689265, 32.428323251345596 ] } },
{ "type": "Feature", "properties": { "VILLAGE_ID": 15, "NAME": "Phagli  Mama", "BLOCK_NAME": "Dhar Kalan", "SUB_DISTRI": "Dhar Kalan", "DISTRICT": "Gurdaspur", "STATE_UT": "Punjab", "C_CODE01": "0301000100001200", "LEVEL": "Village" }, "geometry": { "type": "Point", "coordinates": [ 75.863087426269431, 32.406040390987485 ] } },
{ "type": "Feature", "properties": { "VILLAGE_ID": 16, "NAME": "Dhar Khurd", "BLOCK_NAME": "Dhar Kalan", "SUB_DISTRI": "Dhar Kalan", "DISTRICT": "Gurdaspur", "STATE_UT": "Punjab", "C_CODE01": "0301000100001100", "LEVEL": "Village" }, "geometry": { "type": "Point", "coordinates": [ 75.84082776276793, 32.414172177505478 ] } },
{ "type": "Feature", "properties": { "VILLAGE_ID": 17, "NAME": "Thara Jhikla", "BLOCK_NAME": "Dhar Kalan", "SUB_DISTRI": "Dhar Kalan", "DISTRICT": "Gurdaspur", "STATE_UT": "Punjab", "C_CODE01": "0301000100002300", "LEVEL": "Village" }, "geometry": { "type": "Point", "coordinates": [ 75.767527171256987, 32.402379136536005 ] } },
{ "type": "Feature", "properties": { "VILLAGE_ID": 18, "NAME": "Lanjera", "BLOCK_NAME": "Dhar Kalan", "SUB_DISTRI": "Dhar Kalan", "DISTRICT": "Gurdaspur", "STATE_UT": "Punjab", "C_CODE01": "0301000100001300", "LEVEL": "Village" }, "geometry": { "type": "Point", "coordinates": [ 75.901263919284048, 32.402431796960656 ] } },
{ "type": "Feature", "properties": { "VILLAGE_ID": 19, "NAME": "Lohrun", "BLOCK_NAME": "Dhar Kalan", "SUB_DISTRI": "Dhar Kalan", "DISTRICT": "Gurdaspur", "STATE_UT": "Punjab", "C_CODE01": "0301000100001400", "LEVEL": "Village" }, "geometry": { "type": "Point", "coordinates": [ 75.921740232007124, 32.396319054013233 ] } },
{ "type": "Feature", "properties": { "VILLAGE_ID": 20, "NAME": "Bhanguri", "BLOCK_NAME": "Dhar Kalan", "SUB_DISTRI": "Dhar Kalan", "DISTRICT": "Gurdaspur", "STATE_UT": "Punjab", "C_CODE01": "0301000100001700", "LEVEL": "Village" }, "geometry": { "type": "Point", "coordinates": [ 75.860686068102297, 32.377352820110282 ] } },
{ "type": "Feature", "properties": { "VILLAGE_ID": 21, "NAME": "Jalahar", "BLOCK_NAME": "Dhar Kalan", "SUB_DISTRI": "Dhar Kalan", "DISTRICT": "Gurdaspur", "STATE_UT": "Punjab", "C_CODE01": "0301000100001800", "LEVEL": "Village" }, "geometry": { "type": "Point", "coordinates": [ 75.83798795745237, 32.391922872940306 ] } },
{ "type": "Feature", "properties": { "VILLAGE_ID": 22, "NAME": "Hara", "BLOCK_NAME": "Dhar Kalan", "SUB_DISTRI": "Dhar Kalan", "DISTRICT": "Gurdaspur", "STATE_UT": "Punjab", "C_CODE01": "0301000100002500", "LEVEL": "Village" }, "geometry": { "type": "Point", "coordinates": [ 75.795650762840211, 32.352558051029689 ] } },
{ "type": "Feature", "properties": { "VILLAGE_ID": 23, "NAME": "Kot", "BLOCK_NAME": "Dhar Kalan", "SUB_DISTRI": "Dhar Kalan", "DISTRICT": "Gurdaspur", "STATE_UT": "Punjab", "C_CODE01": "0301000100002700", "LEVEL": "Village" }, "geometry": { "type": "Point", "coordinates": [ 75.729849699330018, 32.38211817530734 ] } },
{ "type": "Feature", "properties": { "VILLAGE_ID": 24, "NAME": "Tarhari", "BLOCK_NAME": "Dhar Kalan", "SUB_DISTRI": "Dhar Kalan", "DISTRICT": "Gurdaspur", "STATE_UT": "Punjab", "C_CODE01": "0301000100002600", "LEVEL": "Village" }, "geometry": { "type": "Point", "coordinates": [ 75.750505316183862, 32.362046666929004 ] } },
{ "type": "Feature", "properties": { "VILLAGE_ID": 25, "NAME": "Rohg", "BLOCK_NAME": "Dhar Kalan", "SUB_DISTRI": "Dhar Kalan", "DISTRICT": "Gurdaspur", "STATE_UT": "Punjab", "C_CODE01": "0301000100001600", "LEVEL": "Village" }, "geometry": { "type": "Point", "coordinates": [ 75.881552641351277, 32.385972233727074 ] } },
{ "type": "Feature", "properties": { "VILLAGE_ID": 26, "NAME": "Bakhatpur", "BLOCK_NAME": "Dhar Kalan", "SUB_DISTRI": "Dhar Kalan", "DISTRICT": "Gurdaspur", "STATE_UT": "Punjab", "C_CODE01": "0301000100001500", "LEVEL": "Village" }, "geometry": { "type": "Point", "coordinates": [ 75.909417236424545, 32.384137311531063 ] } },
{ "type": "Feature", "properties": { "VILLAGE_ID": 27, "NAME": "Tureti", "BLOCK_NAME": "Dhar Kalan", "SUB_DISTRI": "Dhar Kalan", "DISTRICT": "Gurdaspur", "STATE_UT": "Punjab", "C_CODE01": "0301000100002800", "LEVEL": "Village" }, "geometry": { "type": "Point", "coordinates": [ 75.706522119318421, 32.371048252894759 ] } },
{ "type": "Feature", "properties": { "VILLAGE_ID": 28, "NAME": "Jugial", "BLOCK_NAME": "Dhar Kalan", "SUB_DISTRI": "Pathankot", "DISTRICT": "Gurdaspur", "STATE_UT": "Punjab", "C_CODE01": "0301000240102000", "LEVEL": "Town" }, "geometry": { "type": "Point", "coordinates": [ 75.686531452426237, 32.354705915239741 ] } },
{ "type": "Feature", "properties": { "VILLAGE_ID": 29, "NAME": "Rajpura", "BLOCK_NAME": "Dhar Kalan", "SUB_DISTRI": "Pathankot", "DISTRICT": "Gurdaspur", "STATE_UT": "Punjab", "C_CODE01": "0301000200002900", "LEVEL": "Village" }, "geometry": { "type": "Point", "coordinates": [ 75.681509801189449, 32.364882668871843 ] } },
{ "type": "Feature", "properties": { "VILLAGE_ID": 30, "NAME": "Barkola", "BLOCK_NAME": "Dhar Kalan", "SUB_DISTRI": "Pathankot", "DISTRICT": "Gurdaspur", "STATE_UT": "Punjab", "C_CODE01": "0301000200003000", "LEVEL": "Village" }, "geometry": { "type": "Point", "coordinates": [ 75.673047110910346, 32.370884784712921 ] } },
{ "type": "Feature", "properties": { "VILLAGE_ID": 31, "NAME": "Harur", "BLOCK_NAME": "Dhar Kalan", "SUB_DISTRI": "Pathankot", "DISTRICT": "Gurdaspur", "STATE_UT": "Punjab", "C_CODE01": "0301000200003100", "LEVEL": "Village" }, "geometry": { "type": "Point", "coordinates": [ 75.664761608790997, 32.363517632188874 ] } },
{ "type": "Feature", "properties": { "VILLAGE_ID": 32, "NAME": "Kamwal", "BLOCK_NAME": "Dhar Kalan", "SUB_DISTRI": "Pathankot", "DISTRICT": "Gurdaspur", "STATE_UT": "Punjab", "C_CODE01": "0301000200003200", "LEVEL": "Village" }, "geometry": { "type": "Point", "coordinates": [ 75.658076226774398, 32.359497562599678 ] } },
{ "type": "Feature", "properties": { "VILLAGE_ID": 33, "NAME": "Khala", "BLOCK_NAME": "Dhar Kalan", "SUB_DISTRI": "Pathankot", "DISTRICT": "Gurdaspur", "STATE_UT": "Punjab", "C_CODE01": "0301000200003300", "LEVEL": "Village" }, "geometry": { "type": "Point", "coordinates": [ 75.651336248502687, 32.356851015006534 ] } },
{ "type": "Feature", "properties": { "VILLAGE_ID": 34, "NAME": "Sadhauri", "BLOCK_NAME": "Dhar Kalan", "SUB_DISTRI": "Pathankot", "DISTRICT": "Gurdaspur", "STATE_UT": "Punjab", "C_CODE01": "0301000200003400", "LEVEL": "Village" }, "geometry": { "type": "Point", "coordinates": [ 75.640869486262687, 32.360182181027668 ] } },
{ "type": "Feature", "properties": { "VILLAGE_ID": 35, "NAME": "Madhopur Chhauni", "BLOCK_NAME": "Dhar Kalan", "SUB_DISTRI": "Pathankot", "DISTRICT": "Gurdaspur", "STATE_UT": "Punjab", "C_CODE01": "0301000200003600", "LEVEL": "Village" }, "geometry": { "type": "Point", "coordinates": [ 75.621696484546234, 32.352943356981939 ] } },
{ "type": "Feature", "properties": { "VILLAGE_ID": 36, "NAME": "Madhopur", "BLOCK_NAME": "Dhar Kalan", "SUB_DISTRI": "Pathankot", "DISTRICT": "Gurdaspur", "STATE_UT": "Punjab", "C_CODE01": "0301000200003500", "LEVEL": "Village" }, "geometry": { "type": "Point", "coordinates": [ 75.623532872610355, 32.361465242258177 ] } },
{ "type": "Feature", "properties": { "VILLAGE_ID": 37, "NAME": "Bheri Bazurg", "BLOCK_NAME": "Dhar Kalan", "SUB_DISTRI": "Pathankot", "DISTRICT": "Gurdaspur", "STATE_UT": "Punjab", "C_CODE01": "0301000200008500", "LEVEL": "Village" }, "geometry": { "type": "Point", "coordinates": [ 75.600895636163742, 32.342461578623777 ] } },
{ "type": "Feature", "properties": { "VILLAGE_ID": 38, "NAME": "Narainpur", "BLOCK_NAME": "Dhar Kalan", "SUB_DISTRI": "Dhar Kalan", "DISTRICT": "Gurdaspur", "STATE_UT": "Punjab", "C_CODE01": "0301000100002400", "LEVEL": "Village" }, "geometry": { "type": "Point", "coordinates": [ 75.825074315581489, 32.349568742686792 ] } },
{ "type": "Feature", "properties": { "VILLAGE_ID": 39, "NAME": "Mirzapur", "BLOCK_NAME": "Dhar Kalan", "SUB_DISTRI": "Pathankot", "DISTRICT": "Gurdaspur", "STATE_UT": "Punjab", "C_CODE01": "0301000200008600", "LEVEL": "Village" }, "geometry": { "type": "Point", "coordinates": [ 75.598226606086115, 32.350808003904127 ] } },
{ "type": "Feature", "properties": { "VILLAGE_ID": 40, "NAME": "Gurah Khurd", "BLOCK_NAME": "Dhar Kalan", "SUB_DISTRI": "Pathankot", "DISTRICT": "Gurdaspur", "STATE_UT": "Punjab", "C_CODE01": "0301000200003700", "LEVEL": "Village" }, "geometry": { "type": "Point", "coordinates": [ 75.640328336192795, 32.349074769883025 ] } },
{ "type": "Feature", "properties": { "VILLAGE_ID": 41, "NAME": "Jindrai", "BLOCK_NAME": "Dhar Kalan", "SUB_DISTRI": "Pathankot", "DISTRICT": "Gurdaspur", "STATE_UT": "Punjab", "C_CODE01": "0301000200004500", "LEVEL": "Village" }, "geometry": { "type": "Point", "coordinates": [ 75.700263859707462, 32.345208670189557 ] } },
{ "type": "Feature", "properties": { "VILLAGE_ID": 42, "NAME": "Tharial", "BLOCK_NAME": "Dhar Kalan", "SUB_DISTRI": "Pathankot", "DISTRICT": "Gurdaspur", "STATE_UT": "Punjab", "C_CODE01": "0301000200003800", "LEVEL": "Village" }, "geometry": { "type": "Point", "coordinates": [ 75.63890152376834, 32.336014151372822 ] } },
{ "type": "Feature", "properties": { "VILLAGE_ID": 43, "NAME": "Baroi", "BLOCK_NAME": "Dhar Kalan", "SUB_DISTRI": "Pathankot", "DISTRICT": "Gurdaspur", "STATE_UT": "Punjab", "C_CODE01": "0301000200004400", "LEVEL": "Village" }, "geometry": { "type": "Point", "coordinates": [ 75.701940978457387, 32.334317956062897 ] } },
{ "type": "Feature", "properties": { "VILLAGE_ID": 44, "NAME": "Bhadrali", "BLOCK_NAME": "Pathankot", "SUB_DISTRI": "Pathankot", "DISTRICT": "Gurdaspur", "STATE_UT": "Punjab", "C_CODE01": "0301000200011000", "LEVEL": "Village" }, "geometry": { "type": "Point", "coordinates": [ 75.568492793685749, 32.32115941762153 ] } },
{ "type": "Feature", "properties": { "VILLAGE_ID": 45, "NAME": "Chhan", "BLOCK_NAME": "Dhar Kalan", "SUB_DISTRI": "Pathankot", "DISTRICT": "Gurdaspur", "STATE_UT": "Punjab", "C_CODE01": "0301000200008700", "LEVEL": "Village" }, "geometry": { "type": "Point", "coordinates": [ 75.588674704668122, 32.335488202031421 ] } },
{ "type": "Feature", "properties": { "VILLAGE_ID": 46, "NAME": "Bungal", "BLOCK_NAME": "Dhar Kalan", "SUB_DISTRI": "Pathankot", "DISTRICT": "Gurdaspur", "STATE_UT": "Punjab", "C_CODE01": "0301000200005100", "LEVEL": "Village" }, "geometry": { "type": "Point", "coordinates": [ 75.773312068697479, 32.311634658863682 ] } },
{ "type": "Feature", "properties": { "VILLAGE_ID": 47, "NAME": "Hajipur", "BLOCK_NAME": "Dhar Kalan", "SUB_DISTRI": "Pathankot", "DISTRICT": "Gurdaspur", "STATE_UT": "Punjab", "C_CODE01": "0301000200008900", "LEVEL": "Village" }, "geometry": { "type": "Point", "coordinates": [ 75.596569462564801, 32.333740550134699 ] } },
{ "type": "Feature", "properties": { "VILLAGE_ID": 48, "NAME": "Ranipur", "BLOCK_NAME": "Dhar Kalan", "SUB_DISTRI": "Pathankot", "DISTRICT": "Gurdaspur", "STATE_UT": "Punjab", "C_CODE01": "0301000200003900", "LEVEL": "Village" }, "geometry": { "type": "Point", "coordinates": [ 75.666231469297784, 32.329103087896009 ] } },
{ "type": "Feature", "properties": { "VILLAGE_ID": 49, "NAME": "Palah", "BLOCK_NAME": "Bamial", "SUB_DISTRI": "Pathankot", "DISTRICT": "Gurdaspur", "STATE_UT": "Punjab", "C_CODE01": "0301000200033200", "LEVEL": "Village" }, "geometry": { "type": "Point", "coordinates": [ 75.368177223669392, 32.331422436731081 ] } },
{ "type": "Feature", "properties": { "VILLAGE_ID": 50, "NAME": "Ferozepur Kalan", "BLOCK_NAME": "Dhar Kalan", "SUB_DISTRI": "Pathankot", "DISTRICT": "Gurdaspur", "STATE_UT": "Punjab", "C_CODE01": "0301000200009000", "LEVEL": "Village" }, "geometry": { "type": "Point", "coordinates": [ 75.603386913413317, 32.329180896376002 ] } },
{ "type": "Feature", "properties": { "VILLAGE_ID": 51, "NAME": "Kharkhara Thuthowal", "BLOCK_NAME": "Narot Jaimal Singh", "SUB_DISTRI": "Pathankot", "DISTRICT": "Gurdaspur", "STATE_UT": "Punjab", "C_CODE01": "0301000200026000", "LEVEL": "Village" }, "geometry": { "type": "Point", "coordinates": [ 75.501220593633079, 32.329346134261066 ] } },
{ "type": "Feature", "properties": { "VILLAGE_ID": 52, "NAME": "Dhalatar", "BLOCK_NAME": "Bamial", "SUB_DISTRI": "Pathankot", "DISTRICT": "Gurdaspur", "STATE_UT": "Punjab", "C_CODE01": "0301000200033300", "LEVEL": "Village" }, "geometry": { "type": "Point", "coordinates": [ 75.35963251392883, 32.327784485539688 ] } },
{ "type": "Feature", "properties": { "VILLAGE_ID": 53, "NAME": "Mutfaroa", "BLOCK_NAME": "Dhar Kalan", "SUB_DISTRI": "Pathankot", "DISTRICT": "Gurdaspur", "STATE_UT": "Punjab", "C_CODE01": "0301000200004000", "LEVEL": "Village" }, "geometry": { "type": "Point", "coordinates": [ 75.642887238655845, 32.319082116072323 ] } },
{ "type": "Feature", "properties": { "VILLAGE_ID": 54, "NAME": "Dadwan", "BLOCK_NAME": "Dhar Kalan", "SUB_DISTRI": "Pathankot", "DISTRICT": "Gurdaspur", "STATE_UT": "Punjab", "C_CODE01": "0301000200004300", "LEVEL": "Village" }, "geometry": { "type": "Point", "coordinates": [ 75.687083926421835, 32.328107706414258 ] } },
{ "type": "Feature", "properties": { "VILLAGE_ID": 55, "NAME": "Attapur", "BLOCK_NAME": "Dhar Kalan", "SUB_DISTRI": "Pathankot", "DISTRICT": "Gurdaspur", "STATE_UT": "Punjab", "C_CODE01": "0301000200008800", "LEVEL": "Village" }, "geometry": { "type": "Point", "coordinates": [ 75.584484644258239, 32.323942052103256 ] } },
{ "type": "Feature", "properties": { "VILLAGE_ID": 56, "NAME": "Gagroli", "BLOCK_NAME": "Dhar Kalan", "SUB_DISTRI": "Pathankot", "DISTRICT": "Gurdaspur", "STATE_UT": "Punjab", "C_CODE01": "0301000200005000", "LEVEL": "Village" }, "geometry": { "type": "Point", "coordinates": [ 75.752183394701987, 32.315995781892688 ] } },
{ "type": "Feature", "properties": { "VILLAGE_ID": 57, "NAME": "Khadawar", "BLOCK_NAME": "Pathankot", "SUB_DISTRI": "Pathankot", "DISTRICT": "Gurdaspur", "STATE_UT": "Punjab", "C_CODE01": "0301000200009200", "LEVEL": "Village" }, "geometry": { "type": "Point", "coordinates": [ 75.603656339630618, 32.310070435298712 ] } },
{ "type": "Feature", "properties": { "VILLAGE_ID": 58, "NAME": "Naroli", "BLOCK_NAME": "Narot Jaimal Singh", "SUB_DISTRI": "Pathankot", "DISTRICT": "Gurdaspur", "STATE_UT": "Punjab", "C_CODE01": "0301000200025900", "LEVEL": "Village" }, "geometry": { "type": "Point", "coordinates": [ 75.492044784446946, 32.320414791356207 ] } },
{ "type": "Feature", "properties": { "VILLAGE_ID": 59, "NAME": "Jungath", "BLOCK_NAME": "Dhar Kalan", "SUB_DISTRI": "Pathankot", "DISTRICT": "Gurdaspur", "STATE_UT": "Punjab", "C_CODE01": "0301000200004600", "LEVEL": "Village" }, "geometry": { "type": "Point", "coordinates": [ 75.718323507348828, 32.325492987468245 ] } },
{ "type": "Feature", "properties": { "VILLAGE_ID": 60, "NAME": "Bhupalpur", "BLOCK_NAME": "Bamial", "SUB_DISTRI": "Pathankot", "DISTRICT": "Gurdaspur", "STATE_UT": "Punjab", "C_CODE01": "0301000200033400", "LEVEL": "Village" }, "geometry": { "type": "Point", "coordinates": [ 75.36193446586833, 32.320982954971676 ] } },
{ "type": "Feature", "properties": { "VILLAGE_ID": 61, "NAME": "Kot  Bhattian", "BLOCK_NAME": "Bamial", "SUB_DISTRI": "Pathankot", "DISTRICT": "Gurdaspur", "STATE_UT": "Punjab", "C_CODE01": "0301000200032800", "LEVEL": "Village" }, "geometry": { "type": "Point", "coordinates": [ 75.396564995832762, 32.322321416346604 ] } },
{ "type": "Feature", "properties": { "VILLAGE_ID": 62, "NAME": "Ghoh", "BLOCK_NAME": "Dhar Kalan", "SUB_DISTRI": "Pathankot", "DISTRICT": "Gurdaspur", "STATE_UT": "Punjab", "C_CODE01": "0301000200004200", "LEVEL": "Village" }, "geometry": { "type": "Point", "coordinates": [ 75.681233805424611, 32.315780434470085 ] } },
{ "type": "Feature", "properties": { "VILLAGE_ID": 63, "NAME": "Nagrota", "BLOCK_NAME": "Dhar Kalan", "SUB_DISTRI": "Pathankot", "DISTRICT": "Gurdaspur", "STATE_UT": "Punjab", "C_CODE01": "0301000200004700", "LEVEL": "Village" }, "geometry": { "type": "Point", "coordinates": [ 75.725191265875083, 32.314704495358768 ] } },
{ "type": "Feature", "properties": { "VILLAGE_ID": 64, "NAME": "Gohla", "BLOCK_NAME": "Bamial", "SUB_DISTRI": "Pathankot", "DISTRICT": "Gurdaspur", "STATE_UT": "Punjab", "C_CODE01": "0301000200033100", "LEVEL": "Village" }, "geometry": { "type": "Point", "coordinates": [ 75.379074240535218, 32.319993856172665 ] } },
{ "type": "Feature", "properties": { "VILLAGE_ID": 65, "NAME": "Bhol Chak", "BLOCK_NAME": "Dhar Kalan", "SUB_DISTRI": "Pathankot", "DISTRICT": "Gurdaspur", "STATE_UT": "Punjab", "C_CODE01": "0301000200009100", "LEVEL": "Village" }, "geometry": { "type": "Point", "coordinates": [ 75.593210603673114, 32.318547412780468 ] } },
{ "type": "Feature", "properties": { "VILLAGE_ID": 66, "NAME": "Kotli  Jawahar", "BLOCK_NAME": "Bamial", "SUB_DISTRI": "Pathankot", "DISTRICT": "Gurdaspur", "STATE_UT": "Punjab", "C_CODE01": "0301000200033500", "LEVEL": "Village" }, "geometry": { "type": "Point", "coordinates": [ 75.369691872856507, 32.318987294539617 ] } },
{ "type": "Feature", "properties": { "VILLAGE_ID": 67, "NAME": "Bholo Bhalial", "BLOCK_NAME": "Bamial", "SUB_DISTRI": "Pathankot", "DISTRICT": "Gurdaspur", "STATE_UT": "Punjab", "C_CODE01": "0301000200033000", "LEVEL": "Village" }, "geometry": { "type": "Point", "coordinates": [ 75.387185912051308, 32.319291819049575 ] } },
{ "type": "Feature", "properties": { "VILLAGE_ID": 68, "NAME": "Bhanwal", "BLOCK_NAME": "Pathankot", "SUB_DISTRI": "Pathankot", "DISTRICT": "Gurdaspur", "STATE_UT": "Punjab", "C_CODE01": "0301000200008400", "LEVEL": "Village" }, "geometry": { "type": "Point", "coordinates": [ 75.623197964508392, 32.313199885056306 ] } },
{ "type": "Feature", "properties": { "VILLAGE_ID": 69, "NAME": "Bhakhri", "BLOCK_NAME": "Bamial", "SUB_DISTRI": "Pathankot", "DISTRICT": "Gurdaspur", "STATE_UT": "Punjab", "C_CODE01": "0301000200032600", "LEVEL": "Village" }, "geometry": { "type": "Point", "coordinates": [ 75.417246411776702, 32.316174892531379 ] } },
{ "type": "Feature", "properties": { "VILLAGE_ID": 70, "NAME": "Turehti", "BLOCK_NAME": "Dhar Kalan", "SUB_DISTRI": "Pathankot", "DISTRICT": "Gurdaspur", "STATE_UT": "Punjab", "C_CODE01": "0301000200005200", "LEVEL": "Village" }, "geometry": { "type": "Point", "coordinates": [ 75.802844394246463, 32.315250217795111 ] } },
{ "type": "Feature", "properties": { "VILLAGE_ID": 71, "NAME": "Sarota", "BLOCK_NAME": "Bamial", "SUB_DISTRI": "Pathankot", "DISTRICT": "Gurdaspur", "STATE_UT": "Punjab", "C_CODE01": "0301000200032700", "LEVEL": "Village" }, "geometry": { "type": "Point", "coordinates": [ 75.398695129709836, 32.309322353657485 ] } },
{ "type": "Feature", "properties": { "VILLAGE_ID": 72, "NAME": "Baghar", "BLOCK_NAME": "Dhar Kalan", "SUB_DISTRI": "Pathankot", "DISTRICT": "Gurdaspur", "STATE_UT": "Punjab", "C_CODE01": "0301000200005400", "LEVEL": "Village" }, "geometry": { "type": "Point", "coordinates": [ 75.78795185508784, 32.295469660828438 ] } },
{ "type": "Feature", "properties": { "VILLAGE_ID": 73, "NAME": "Balotar", "BLOCK_NAME": "Bamial", "SUB_DISTRI": "Pathankot", "DISTRICT": "Gurdaspur", "STATE_UT": "Punjab", "C_CODE01": "0301000200032900", "LEVEL": "Village" }, "geometry": { "type": "Point", "coordinates": [ 75.393474895277663, 32.316713469692083 ] } },
{ "type": "Feature", "properties": { "VILLAGE_ID": 74, "NAME": "Janial", "BLOCK_NAME": "Bamial", "SUB_DISTRI": "Pathankot", "DISTRICT": "Gurdaspur", "STATE_UT": "Punjab", "C_CODE01": "0301000200032300", "LEVEL": "Village" }, "geometry": { "type": "Point", "coordinates": [ 75.432333520861704, 32.308193076530671 ] } },
{ "type": "Feature", "properties": { "VILLAGE_ID": 75, "NAME": "Samrala", "BLOCK_NAME": "Bamial", "SUB_DISTRI": "Pathankot", "DISTRICT": "Gurdaspur", "STATE_UT": "Punjab", "C_CODE01": "0301000200032500", "LEVEL": "Village" }, "geometry": { "type": "Point", "coordinates": [ 75.413319832622747, 32.311143736250614 ] } },
{ "type": "Feature", "properties": { "VILLAGE_ID": 76, "NAME": "Taloor", "BLOCK_NAME": "Narot Jaimal Singh", "SUB_DISTRI": "Pathankot", "DISTRICT": "Gurdaspur", "STATE_UT": "Punjab", "C_CODE01": "0301000200026100", "LEVEL": "Village" }, "geometry": { "type": "Point", "coordinates": [ 75.473734057020806, 32.309636932695952 ] } },
{ "type": "Feature", "properties": { "VILLAGE_ID": 77, "NAME": "Phangoli", "BLOCK_NAME": "Dhar Kalan", "SUB_DISTRI": "Pathankot", "DISTRICT": "Gurdaspur", "STATE_UT": "Punjab", "C_CODE01": "0301000200007300", "LEVEL": "Village" }, "geometry": { "type": "Point", "coordinates": [ 75.693662693351158, 32.303946537597724 ] } },
{ "type": "Feature", "properties": { "VILLAGE_ID": 78, "NAME": "Malharwan", "BLOCK_NAME": "Narot Jaimal Singh", "SUB_DISTRI": "Pathankot", "DISTRICT": "Gurdaspur", "STATE_UT": "Punjab", "C_CODE01": "0301000200025800", "LEVEL": "Village" }, "geometry": { "type": "Point", "coordinates": [ 75.490265451424108, 32.306138291399648 ] } },
{ "type": "Feature", "properties": { "VILLAGE_ID": 79, "NAME": "Sauli Bhauli", "BLOCK_NAME": "Pathankot", "SUB_DISTRI": "Pathankot", "DISTRICT": "Gurdaspur", "STATE_UT": "Punjab", "C_CODE01": "0301000200008300", "LEVEL": "Village" }, "geometry": { "type": "Point", "coordinates": [ 75.626932398589048, 32.30008870204977 ] } },
{ "type": "Feature", "properties": { "VILLAGE_ID": 80, "NAME": "Dhinda", "BLOCK_NAME": "Bamial", "SUB_DISTRI": "Pathankot", "DISTRICT": "Gurdaspur", "STATE_UT": "Punjab", "C_CODE01": "0301000200033600", "LEVEL": "Village" }, "geometry": { "type": "Point", "coordinates": [ 75.360308834276779, 32.307508274931443 ] } },
{ "type": "Feature", "properties": { "VILLAGE_ID": 81, "NAME": "Khojki  Chak", "BLOCK_NAME": "Bamial", "SUB_DISTRI": "Pathankot", "DISTRICT": "Gurdaspur", "STATE_UT": "Punjab", "C_CODE01": "0301000200033800", "LEVEL": "Village" }, "geometry": { "type": "Point", "coordinates": [ 75.375424575245418, 32.305035971222978 ] } },
{ "type": "Feature", "properties": { "VILLAGE_ID": 82, "NAME": "Shahar", "BLOCK_NAME": "Dhar Kalan", "SUB_DISTRI": "Pathankot", "DISTRICT": "Gurdaspur", "STATE_UT": "Punjab", "C_CODE01": "0301000200010900", "LEVEL": "Village" }, "geometry": { "type": "Point", "coordinates": [ 75.586743794579121, 32.306704355235375 ] } },
{ "type": "Feature", "properties": { "VILLAGE_ID": 83, "NAME": "Haryal", "BLOCK_NAME": "Dhar Kalan", "SUB_DISTRI": "Pathankot", "DISTRICT": "Gurdaspur", "STATE_UT": "Punjab", "C_CODE01": "0301000200005300", "LEVEL": "Village" }, "geometry": { "type": "Point", "coordinates": [ 75.798839067020779, 32.304549240155048 ] } },
{ "type": "Feature", "properties": { "VILLAGE_ID": 84, "NAME": "Karoli", "BLOCK_NAME": "Dhar Kalan", "SUB_DISTRI": "Pathankot", "DISTRICT": "Gurdaspur", "STATE_UT": "Punjab", "C_CODE01": "0301000200004900", "LEVEL": "Village" }, "geometry": { "type": "Point", "coordinates": [ 75.732572383397411, 32.299745322574047 ] } },
{ "type": "Feature", "properties": { "VILLAGE_ID": 85, "NAME": "Jhanjeli", "BLOCK_NAME": "Dhar Kalan", "SUB_DISTRI": "Pathankot", "DISTRICT": "Gurdaspur", "STATE_UT": "Punjab", "C_CODE01": "0301000200004100", "LEVEL": "Village" }, "geometry": { "type": "Point", "coordinates": [ 75.641454316379324, 32.306612532907032 ] } },
{ "type": "Feature", "properties": { "VILLAGE_ID": 86, "NAME": "Gugran", "BLOCK_NAME": "Narot Jaimal Singh", "SUB_DISTRI": "Pathankot", "DISTRICT": "Gurdaspur", "STATE_UT": "Punjab", "C_CODE01": "0301000200025700", "LEVEL": "Village" }, "geometry": { "type": "Point", "coordinates": [ 75.498808417328462, 32.302117888393781 ] } },
{ "type": "Feature", "properties": { "VILLAGE_ID": 87, "NAME": "Fatehpur", "BLOCK_NAME": "Narot Jaimal Singh", "SUB_DISTRI": "Pathankot", "DISTRICT": "Gurdaspur", "STATE_UT": "Punjab", "C_CODE01": "0301000200031800", "LEVEL": "Village" }, "geometry": { "type": "Point", "coordinates": [ 75.457533934089156, 32.301718565693285 ] } },
{ "type": "Feature", "properties": { "VILLAGE_ID": 88, "NAME": "Chak Amir", "BLOCK_NAME": "Bamial", "SUB_DISTRI": "Pathankot", "DISTRICT": "Gurdaspur", "STATE_UT": "Punjab", "C_CODE01": "0301000200032400", "LEVEL": "Village" }, "geometry": { "type": "Point", "coordinates": [ 75.418006746011898, 32.299795608343437 ] } },
{ "type": "Feature", "properties": { "VILLAGE_ID": 89, "NAME": "Athotarwan", "BLOCK_NAME": "Dhar Kalan", "SUB_DISTRI": "Pathankot", "DISTRICT": "Gurdaspur", "STATE_UT": "Punjab", "C_CODE01": "0301000200006500", "LEVEL": "Village" }, "geometry": { "type": "Point", "coordinates": [ 75.754028165194811, 32.300046874962547 ] } },
{ "type": "Feature", "properties": { "VILLAGE_ID": 90, "NAME": "Chak Hari Rai", "BLOCK_NAME": "Narot Jaimal Singh", "SUB_DISTRI": "Pathankot", "DISTRICT": "Gurdaspur", "STATE_UT": "Punjab", "C_CODE01": "0301000200025600", "LEVEL": "Village" }, "geometry": { "type": "Point", "coordinates": [ 75.508256282964112, 32.300149141493577 ] } },
{ "type": "Feature", "properties": { "VILLAGE_ID": 91, "NAME": "Kother", "BLOCK_NAME": "Pathankot", "SUB_DISTRI": "Pathankot", "DISTRICT": "Gurdaspur", "STATE_UT": "Punjab", "C_CODE01": "0301000200004800", "LEVEL": "Village" }, "geometry": { "type": "Point", "coordinates": [ 75.71413684779246, 32.299334161332091 ] } },
{ "type": "Feature", "properties": { "VILLAGE_ID": 92, "NAME": "Kahanpur", "BLOCK_NAME": "Dhar Kalan", "SUB_DISTRI": "Pathankot", "DISTRICT": "Gurdaspur", "STATE_UT": "Punjab", "C_CODE01": "0301000200007700", "LEVEL": "Village" }, "geometry": { "type": "Point", "coordinates": [ 75.666017628217276, 32.299481208290089 ] } },
{ "type": "Feature", "properties": { "VILLAGE_ID": 93, "NAME": "Kiri Kalan", "BLOCK_NAME": "Dhar Kalan", "SUB_DISTRI": "Pathankot", "DISTRICT": "Gurdaspur", "STATE_UT": "Punjab", "C_CODE01": "0301000200007200", "LEVEL": "Village" }, "geometry": { "type": "Point", "coordinates": [ 75.697894263164514, 32.30109344101492 ] } },
{ "type": "Feature", "properties": { "VILLAGE_ID": 94, "NAME": "Basroop", "BLOCK_NAME": "Pathankot", "SUB_DISTRI": "Pathankot", "DISTRICT": "Gurdaspur", "STATE_UT": "Punjab", "C_CODE01": "0301000200011100", "LEVEL": "Village" }, "geometry": { "type": "Point", "coordinates": [ 75.565693028924727, 32.293560233307659 ] } },
{ "type": "Feature", "properties": { "VILLAGE_ID": 95, "NAME": "Dostpur", "BLOCK_NAME": "Bamial", "SUB_DISTRI": "Pathankot", "DISTRICT": "Gurdaspur", "STATE_UT": "Punjab", "C_CODE01": "0301000200034100", "LEVEL": "Village" }, "geometry": { "type": "Point", "coordinates": [ 75.389913335862488, 32.29839849701969 ] } },
{ "type": "Feature", "properties": { "VILLAGE_ID": 96, "NAME": "Azizpur Kalan", "BLOCK_NAME": "Pathankot", "SUB_DISTRI": "Pathankot", "DISTRICT": "Gurdaspur", "STATE_UT": "Punjab", "C_CODE01": "0301000200009400", "LEVEL": "Village" }, "geometry": { "type": "Point", "coordinates": [ 75.612134774714093, 32.299825500335899 ] } },
{ "type": "Feature", "properties": { "VILLAGE_ID": 97, "NAME": "Nihalpur", "BLOCK_NAME": "Dhar Kalan", "SUB_DISTRI": "Pathankot", "DISTRICT": "Gurdaspur", "STATE_UT": "Punjab", "C_CODE01": "0301000200008100", "LEVEL": "Village" }, "geometry": { "type": "Point", "coordinates": [ 75.644895555550519, 32.298507078018034 ] } },
{ "type": "Feature", "properties": { "VILLAGE_ID": 98, "NAME": "Mastpur", "BLOCK_NAME": "Narot Jaimal Singh", "SUB_DISTRI": "Pathankot", "DISTRICT": "Gurdaspur", "STATE_UT": "Punjab", "C_CODE01": "0301000200032200", "LEVEL": "Village" }, "geometry": { "type": "Point", "coordinates": [ 75.443910093781, 32.300068541843828 ] } },
{ "type": "Feature", "properties": { "VILLAGE_ID": 99, "NAME": "Farakhpur", "BLOCK_NAME": "Pathankot", "SUB_DISTRI": "Pathankot", "DISTRICT": "Gurdaspur", "STATE_UT": "Punjab", "C_CODE01": "0301000200008200", "LEVEL": "Village" }, "geometry": { "type": "Point", "coordinates": [ 75.63761079237139, 32.299581932119267 ] } },
{ "type": "Feature", "properties": { "VILLAGE_ID": 100, "NAME": "Sakol", "BLOCK_NAME": "Bamial", "SUB_DISTRI": "Pathankot", "DISTRICT": "Gurdaspur", "STATE_UT": "Punjab", "C_CODE01": "0301000200033700", "LEVEL": "Village" }, "geometry": { "type": "Point", "coordinates": [ 75.352370840224197, 32.293681377726074 ] } },
{ "type": "Feature", "properties": { "VILLAGE_ID": 101, "NAME": "Aima Saidan", "BLOCK_NAME": "Narot Jaimal Singh", "SUB_DISTRI": "Pathankot", "DISTRICT": "Gurdaspur", "STATE_UT": "Punjab", "C_CODE01": "0301000200032100", "LEVEL": "Village" }, "geometry": { "type": "Point", "coordinates": [ 75.432534157181877, 32.295263864454554 ] } },
{ "type": "Feature", "properties": { "VILLAGE_ID": 102, "NAME": "Pindi Parolian", "BLOCK_NAME": "Bamial", "SUB_DISTRI": "Pathankot", "DISTRICT": "Gurdaspur", "STATE_UT": "Punjab", "C_CODE01": "0301000200034200", "LEVEL": "Village" }, "geometry": { "type": "Point", "coordinates": [ 75.398604852166287, 32.293626869262724 ] } },
{ "type": "Feature", "properties": { "VILLAGE_ID": 103, "NAME": "Man Singhpur", "BLOCK_NAME": "Narot Jaimal Singh", "SUB_DISTRI": "Pathankot", "DISTRICT": "Gurdaspur", "STATE_UT": "Punjab", "C_CODE01": "0301000200026200", "LEVEL": "Village" }, "geometry": { "type": "Point", "coordinates": [ 75.472275693132389, 32.296910569602503 ] } },
{ "type": "Feature", "properties": { "VILLAGE_ID": 104, "NAME": "Jhumber Tarf  Narot", "BLOCK_NAME": "Narot Jaimal Singh", "SUB_DISTRI": "Pathankot", "DISTRICT": "Gurdaspur", "STATE_UT": "Punjab", "C_CODE01": "0301000200025500", "LEVEL": "Village" }, "geometry": { "type": "Point", "coordinates": [ 75.502369073903495, 32.287806977563996 ] } },
{ "type": "Feature", "properties": { "VILLAGE_ID": 105, "NAME": "Danwal", "BLOCK_NAME": "Bamial", "SUB_DISTRI": "Pathankot", "DISTRICT": "Gurdaspur", "STATE_UT": "Punjab", "C_CODE01": "0301000200034000", "LEVEL": "Village" }, "geometry": { "type": "Point", "coordinates": [ 75.380709547286258, 32.290872706472072 ] } },
{ "type": "Feature", "properties": { "VILLAGE_ID": 106, "NAME": "Manwal", "BLOCK_NAME": "Pathankot", "SUB_DISTRI": "Pathankot", "DISTRICT": "Gurdaspur", "STATE_UT": "Punjab", "C_CODE01": "0301000200007100", "LEVEL": "Village" }, "geometry": { "type": "Point", "coordinates": [ 75.695605577361192, 32.285564470411856 ] } },
{ "type": "Feature", "properties": { "VILLAGE_ID": 107, "NAME": "Simbal", "BLOCK_NAME": "Bamial", "SUB_DISTRI": "Pathankot", "DISTRICT": "Gurdaspur", "STATE_UT": "Punjab", "C_CODE01": "0301000200033900", "LEVEL": "Village" }, "geometry": { "type": "Point", "coordinates": [ 75.364555098260823, 32.288963849131818 ] } },
{ "type": "Feature", "properties": { "VILLAGE_ID": 108, "NAME": "Muthi", "BLOCK_NAME": "Bamial", "SUB_DISTRI": "Pathankot", "DISTRICT": "Gurdaspur", "STATE_UT": "Punjab", "C_CODE01": "0301000200034500", "LEVEL": "Village" }, "geometry": { "type": "Point", "coordinates": [ 75.413445234605092, 32.293860611041708 ] } },
{ "type": "Feature", "properties": { "VILLAGE_ID": 109, "NAME": "Kharkhara Tarf Naro", "BLOCK_NAME": "Narot Jaimal Singh", "SUB_DISTRI": "Pathankot", "DISTRICT": "Gurdaspur", "STATE_UT": "Punjab", "C_CODE01": "0301000200026300", "LEVEL": "Village" }, "geometry": { "type": "Point", "coordinates": [ 75.479694876442821, 32.288579113744824 ] } },
{ "type": "Feature", "properties": { "VILLAGE_ID": 110, "NAME": "Bhortarwan", "BLOCK_NAME": "Dhar Kalan", "SUB_DISTRI": "Pathankot", "DISTRICT": "Gurdaspur", "STATE_UT": "Punjab", "C_CODE01": "0301000200006600", "LEVEL": "Village" }, "geometry": { "type": "Point", "coordinates": [ 75.746681563425071, 32.291876187797961 ] } },
{ "type": "Feature", "properties": { "VILLAGE_ID": 111, "NAME": "Alyal", "BLOCK_NAME": "Narot Jaimal Singh", "SUB_DISTRI": "Pathankot", "DISTRICT": "Gurdaspur", "STATE_UT": "Punjab", "C_CODE01": "0301000200031900", "LEVEL": "Village" }, "geometry": { "type": "Point", "coordinates": [ 75.447624055014515, 32.291315701856213 ] } },
{ "type": "Feature", "properties": { "VILLAGE_ID": 112, "NAME": "Kalaspur", "BLOCK_NAME": "Pathankot", "SUB_DISTRI": "Pathankot", "DISTRICT": "Gurdaspur", "STATE_UT": "Punjab", "C_CODE01": "0301000200009300", "LEVEL": "Village" }, "geometry": { "type": "Point", "coordinates": [ 75.603173547274025, 32.292796827117712 ] } },
{ "type": "Feature", "properties": { "VILLAGE_ID": 113, "NAME": "Phaloura", "BLOCK_NAME": "Pathankot", "SUB_DISTRI": "Pathankot", "DISTRICT": "Gurdaspur", "STATE_UT": "Punjab", "C_CODE01": "0301000200010800", "LEVEL": "Village" }, "geometry": { "type": "Point", "coordinates": [ 75.587735599172618, 32.290785694638409 ] } },
{ "type": "Feature", "properties": { "VILLAGE_ID": 114, "NAME": "Lahri Samanchan", "BLOCK_NAME": "Pathankot", "SUB_DISTRI": "Pathankot", "DISTRICT": "Gurdaspur", "STATE_UT": "Punjab", "C_CODE01": "0301000200011300", "LEVEL": "Village" }, "geometry": { "type": "Point", "coordinates": [ 75.576780227802416, 32.289648563012669 ] } },
{ "type": "Feature", "properties": { "VILLAGE_ID": 115, "NAME": "Bhagwanpur", "BLOCK_NAME": "Narot Jaimal Singh", "SUB_DISTRI": "Pathankot", "DISTRICT": "Gurdaspur", "STATE_UT": "Punjab", "C_CODE01": "0301000200031700", "LEVEL": "Village" }, "geometry": { "type": "Point", "coordinates": [ 75.456158506482481, 32.291097750083118 ] } },
{ "type": "Feature", "properties": { "VILLAGE_ID": 116, "NAME": "Paddian Lahri", "BLOCK_NAME": "Pathankot", "SUB_DISTRI": "Pathankot", "DISTRICT": "Gurdaspur", "STATE_UT": "Punjab", "C_CODE01": "0301000200007800", "LEVEL": "Village" }, "geometry": { "type": "Point", "coordinates": [ 75.658272639049827, 32.287477326445504 ] } },
{ "type": "Feature", "properties": { "VILLAGE_ID": 117, "NAME": "Antor", "BLOCK_NAME": "Narot Jaimal Singh", "SUB_DISTRI": "Pathankot", "DISTRICT": "Gurdaspur", "STATE_UT": "Punjab", "C_CODE01": "0301000200032000", "LEVEL": "Village" }, "geometry": { "type": "Point", "coordinates": [ 75.441261000980973, 32.292324726340809 ] } },
{ "type": "Feature", "properties": { "VILLAGE_ID": 118, "NAME": "Kale Chak", "BLOCK_NAME": "Pathankot", "SUB_DISTRI": "Pathankot", "DISTRICT": "Gurdaspur", "STATE_UT": "Punjab", "C_CODE01": "0301000200009500", "LEVEL": "Village" }, "geometry": { "type": "Point", "coordinates": [ 75.613682974805627, 32.289909942046549 ] } },
{ "type": "Feature", "properties": { "VILLAGE_ID": 119, "NAME": "Gandran Lahri", "BLOCK_NAME": "Pathankot", "SUB_DISTRI": "Pathankot", "DISTRICT": "Gurdaspur", "STATE_UT": "Punjab", "C_CODE01": "0301000200008000", "LEVEL": "Village" }, "geometry": { "type": "Point", "coordinates": [ 75.645592121478941, 32.286109161893421 ] } },
{ "type": "Feature", "properties": { "VILLAGE_ID": 120, "NAME": "Siyonti", "BLOCK_NAME": "Pathankot", "SUB_DISTRI": "Pathankot", "DISTRICT": "Gurdaspur", "STATE_UT": "Punjab", "C_CODE01": "0301000200006800", "LEVEL": "Village" }, "geometry": { "type": "Point", "coordinates": [ 75.719693393094417, 32.289845695831517 ] } },
{ "type": "Feature", "properties": { "VILLAGE_ID": 121, "NAME": "Gosainpur", "BLOCK_NAME": "Pathankot", "SUB_DISTRI": "Pathankot", "DISTRICT": "Gurdaspur", "STATE_UT": "Punjab", "C_CODE01": "0301000200007600", "LEVEL": "Village" }, "geometry": { "type": "Point", "coordinates": [ 75.666485600234864, 32.285218274999579 ] } },
{ "type": "Feature", "properties": { "VILLAGE_ID": 122, "NAME": "Maira Kalan", "BLOCK_NAME": "Narot Jaimal Singh", "SUB_DISTRI": "Pathankot", "DISTRICT": "Gurdaspur", "STATE_UT": "Punjab", "C_CODE01": "0301000200025400", "LEVEL": "Village" }, "geometry": { "type": "Point", "coordinates": [ 75.515974323562588, 32.280199935551281 ] } },
{ "type": "Feature", "properties": { "VILLAGE_ID": 123, "NAME": "Jakral", "BLOCK_NAME": "Dhar Kalan", "SUB_DISTRI": "Pathankot", "DISTRICT": "Gurdaspur", "STATE_UT": "Punjab", "C_CODE01": "0301000200006400", "LEVEL": "Village" }, "geometry": { "type": "Point", "coordinates": [ 75.757443984370937, 32.290128298993153 ] } },
{ "type": "Feature", "properties": { "VILLAGE_ID": 124, "NAME": "Chak Madho Singh", "BLOCK_NAME": "Pathankot", "SUB_DISTRI": "Pathankot", "DISTRICT": "Gurdaspur", "STATE_UT": "Punjab", "C_CODE01": "0301000200007400", "LEVEL": "Village" }, "geometry": { "type": "Point", "coordinates": [ 75.677511543710494, 32.285963475237956 ] } },
{ "type": "Feature", "properties": { "VILLAGE_ID": 125, "NAME": "Chak Man Singhpur", "BLOCK_NAME": "Narot Jaimal Singh", "SUB_DISTRI": "Pathankot", "DISTRICT": "Gurdaspur", "STATE_UT": "Punjab", "C_CODE01": "0301000200031600", "LEVEL": "Village" }, "geometry": { "type": "Point", "coordinates": [ 75.46316057982267, 32.287208598715374 ] } },
{ "type": "Feature", "properties": { "VILLAGE_ID": 126, "NAME": "Phadial", "BLOCK_NAME": "Pathankot", "SUB_DISTRI": "Pathankot", "DISTRICT": "Gurdaspur", "STATE_UT": "Punjab", "C_CODE01": "0301000200006700", "LEVEL": "Village" }, "geometry": { "type": "Point", "coordinates": [ 75.734985128584029, 32.286841888916165 ] } },
{ "type": "Feature", "properties": { "VILLAGE_ID": 127, "NAME": "Ratarwan", "BLOCK_NAME": "Narot Jaimal Singh", "SUB_DISTRI": "Pathankot", "DISTRICT": "Gurdaspur", "STATE_UT": "Punjab", "C_CODE01": "0301000200034600", "LEVEL": "Village" }, "geometry": { "type": "Point", "coordinates": [ 75.429605292957362, 32.28691563014317 ] } },
{ "type": "Feature", "properties": { "VILLAGE_ID": 128, "NAME": "Manwal Mangwal", "BLOCK_NAME": "Bamial", "SUB_DISTRI": "Pathankot", "DISTRICT": "Gurdaspur", "STATE_UT": "Punjab", "C_CODE01": "0301000200034400", "LEVEL": "Village" }, "geometry": { "type": "Point", "coordinates": [ 75.412790678565585, 32.283882234389218 ] } },
{ "type": "Feature", "properties": { "VILLAGE_ID": 129, "NAME": "Jammun", "BLOCK_NAME": "Pathankot", "SUB_DISTRI": "Pathankot", "DISTRICT": "Gurdaspur", "STATE_UT": "Punjab", "C_CODE01": "0301000200009700", "LEVEL": "Village" }, "geometry": { "type": "Point", "coordinates": [ 75.628922938156975, 32.286714740241003 ] } },
{ "type": "Feature", "properties": { "VILLAGE_ID": 130, "NAME": "Jandwal", "BLOCK_NAME": "Dhar Kalan", "SUB_DISTRI": "Pathankot", "DISTRICT": "Gurdaspur", "STATE_UT": "Punjab", "C_CODE01": "0301000200005500", "LEVEL": "Village" }, "geometry": { "type": "Point", "coordinates": [ 75.771571092666491, 32.281483849448009 ] } },
{ "type": "Feature", "properties": { "VILLAGE_ID": 131, "NAME": "Bamyal", "BLOCK_NAME": "Bamial", "SUB_DISTRI": "Pathankot", "DISTRICT": "Gurdaspur", "STATE_UT": "Punjab", "C_CODE01": "0301000200034300", "LEVEL": "Village" }, "geometry": { "type": "Point", "coordinates": [ 75.385463330601695, 32.275840379030889 ] } },
{ "type": "Feature", "properties": { "VILLAGE_ID": 132, "NAME": "Mirzapur", "BLOCK_NAME": "Narot Jaimal Singh", "SUB_DISTRI": "Pathankot", "DISTRICT": "Gurdaspur", "STATE_UT": "Punjab", "C_CODE01": "0301000200034700", "LEVEL": "Village" }, "geometry": { "type": "Point", "coordinates": [ 75.437988227554428, 32.280974077803805 ] } },
{ "type": "Feature", "properties": { "VILLAGE_ID": 133, "NAME": "Sujanpur (Rural )", "BLOCK_NAME": "Pathankot", "SUB_DISTRI": "Pathankot", "DISTRICT": "Gurdaspur", "STATE_UT": "Punjab", "C_CODE01": "0301000200010600", "LEVEL": "Village" }, "geometry": { "type": "Point", "coordinates": [ 75.598014195372102, 32.281688773523769 ] } },
{ "type": "Feature", "properties": { "VILLAGE_ID": 134, "NAME": "Kalarwan", "BLOCK_NAME": "Dhar Kalan", "SUB_DISTRI": "Pathankot", "DISTRICT": "Gurdaspur", "STATE_UT": "Punjab", "C_CODE01": "0301000200006300", "LEVEL": "Village" }, "geometry": { "type": "Point", "coordinates": [ 75.759526791151657, 32.280868518100228 ] } },
{ "type": "Feature", "properties": { "VILLAGE_ID": 135, "NAME": "Halahar", "BLOCK_NAME": "Dhar Kalan", "SUB_DISTRI": "Pathankot", "DISTRICT": "Gurdaspur", "STATE_UT": "Punjab", "C_CODE01": "0301000200006200", "LEVEL": "Village" }, "geometry": { "type": "Point", "coordinates": [ 75.748196792608326, 32.279976275356638 ] } },
{ "type": "Feature", "properties": { "VILLAGE_ID": 136, "NAME": "Lamin", "BLOCK_NAME": "Pathankot", "SUB_DISTRI": "Pathankot", "DISTRICT": "Gurdaspur", "STATE_UT": "Punjab", "C_CODE01": "0301000200006900", "LEVEL": "Village" }, "geometry": { "type": "Point", "coordinates": [ 75.710436984294802, 32.28025527640299 ] } },
{ "type": "Feature", "properties": { "VILLAGE_ID": 137, "NAME": "Sujanpur", "BLOCK_NAME": "Pathankot", "SUB_DISTRI": "Pathankot", "DISTRICT": "Gurdaspur", "STATE_UT": "Punjab", "C_CODE01": "0301000240101000", "LEVEL": "Town" }, "geometry": { "type": "Point", "coordinates": [ 75.606779768664907, 32.282249000269815 ] } },
{ "type": "Feature", "properties": { "VILLAGE_ID": 138, "NAME": "Bhajurah", "BLOCK_NAME": "Pathankot", "SUB_DISTRI": "Pathankot", "DISTRICT": "Gurdaspur", "STATE_UT": "Punjab", "C_CODE01": "0301000200009600", "LEVEL": "Village" }, "geometry": { "type": "Point", "coordinates": [ 75.61533012876184, 32.280950090753855 ] } },
{ "type": "Feature", "properties": { "VILLAGE_ID": 139, "NAME": "Ram Kalwan", "BLOCK_NAME": "Narot Jaimal Singh", "SUB_DISTRI": "Pathankot", "DISTRICT": "Gurdaspur", "STATE_UT": "Punjab", "C_CODE01": "0301000200034800", "LEVEL": "Village" }, "geometry": { "type": "Point", "coordinates": [ 75.424093906994457, 32.276041109239578 ] } },
{ "type": "Feature", "properties": { "VILLAGE_ID": 140, "NAME": "Phool Piara", "BLOCK_NAME": "Pathankot", "SUB_DISTRI": "Pathankot", "DISTRICT": "Gurdaspur", "STATE_UT": "Punjab", "C_CODE01": "0301000200010700", "LEVEL": "Village" }, "geometry": { "type": "Point", "coordinates": [ 75.589760887710383, 32.280370516107418 ] } },
{ "type": "Feature", "properties": { "VILLAGE_ID": 141, "NAME": "Sangher", "BLOCK_NAME": "Pathankot", "SUB_DISTRI": "Pathankot", "DISTRICT": "Gurdaspur", "STATE_UT": "Punjab", "C_CODE01": "0301000200006000", "LEVEL": "Village" }, "geometry": { "type": "Point", "coordinates": [ 75.72946328583842, 32.278364949194867 ] } },
{ "type": "Feature", "properties": { "VILLAGE_ID": 142, "NAME": "Jhandpur", "BLOCK_NAME": "Pathankot", "SUB_DISTRI": "Pathankot", "DISTRICT": "Gurdaspur", "STATE_UT": "Punjab", "C_CODE01": "0301000200011200", "LEVEL": "Village" }, "geometry": { "type": "Point", "coordinates": [ 75.563353858504911, 32.276232099191112 ] } },
{ "type": "Feature", "properties": { "VILLAGE_ID": 143, "NAME": "Dalpat Tarf Narot", "BLOCK_NAME": "Narot Jaimal Singh", "SUB_DISTRI": "Pathankot", "DISTRICT": "Gurdaspur", "STATE_UT": "Punjab", "C_CODE01": "0301000200031500", "LEVEL": "Village" }, "geometry": { "type": "Point", "coordinates": [ 75.461514976105335, 32.276180157935642 ] } },
{ "type": "Feature", "properties": { "VILLAGE_ID": 144, "NAME": "Sherpur", "BLOCK_NAME": "Pathankot", "SUB_DISTRI": "Pathankot", "DISTRICT": "Gurdaspur", "STATE_UT": "Punjab", "C_CODE01": "0301000200011400", "LEVEL": "Village" }, "geometry": { "type": "Point", "coordinates": [ 75.578963716357848, 32.280707254174047 ] } },
{ "type": "Feature", "properties": { "VILLAGE_ID": 145, "NAME": "Mamun", "BLOCK_NAME": "Pathankot", "SUB_DISTRI": "Pathankot", "DISTRICT": "Gurdaspur", "STATE_UT": "Punjab", "C_CODE01": "0301000200005900", "LEVEL": "Village" }, "geometry": { "type": "Point", "coordinates": [ 75.720060082368562, 32.267347269902913 ] } },
{ "type": "Feature", "properties": { "VILLAGE_ID": 146, "NAME": "Jhakhian Lahri", "BLOCK_NAME": "Pathankot", "SUB_DISTRI": "Pathankot", "DISTRICT": "Gurdaspur", "STATE_UT": "Punjab", "C_CODE01": "0301000200009900", "LEVEL": "Village" }, "geometry": { "type": "Point", "coordinates": [ 75.633022297025136, 32.274765844057853 ] } },
{ "type": "Feature", "properties": { "VILLAGE_ID": 147, "NAME": "Islampur", "BLOCK_NAME": "Pathankot", "SUB_DISTRI": "Pathankot", "DISTRICT": "Gurdaspur", "STATE_UT": "Punjab", "C_CODE01": "0301000200009800", "LEVEL": "Village" }, "geometry": { "type": "Point", "coordinates": [ 75.626524628423198, 32.278626204661251 ] } },
{ "type": "Feature", "properties": { "VILLAGE_ID": 148, "NAME": "Anyal", "BLOCK_NAME": "Bamial", "SUB_DISTRI": "Pathankot", "DISTRICT": "Gurdaspur", "STATE_UT": "Punjab", "C_CODE01": "0301000200035200", "LEVEL": "Village" }, "geometry": { "type": "Point", "coordinates": [ 75.408132277820954, 32.275783557587175 ] } },
{ "type": "Feature", "properties": { "VILLAGE_ID": 149, "NAME": "Jharoli", "BLOCK_NAME": "Dhar Kalan", "SUB_DISTRI": "Pathankot", "DISTRICT": "Gurdaspur", "STATE_UT": "Punjab", "C_CODE01": "0301000200006100", "LEVEL": "Village" }, "geometry": { "type": "Point", "coordinates": [ 75.738812939410082, 32.276778268475518 ] } },
{ "type": "Feature", "properties": { "VILLAGE_ID": 150, "NAME": "Itti", "BLOCK_NAME": "Pathankot", "SUB_DISTRI": "Pathankot", "DISTRICT": "Gurdaspur", "STATE_UT": "Punjab", "C_CODE01": "0301000200010500", "LEVEL": "Village" }, "geometry": { "type": "Point", "coordinates": [ 75.605738339748697, 32.274025705330466 ] } },
{ "type": "Feature", "properties": { "VILLAGE_ID": 151, "NAME": "Kingarian", "BLOCK_NAME": "Pathankot", "SUB_DISTRI": "Pathankot", "DISTRICT": "Gurdaspur", "STATE_UT": "Punjab", "C_CODE01": "0301000200007500", "LEVEL": "Village" }, "geometry": { "type": "Point", "coordinates": [ 75.666816151735119, 32.27141656582652 ] } },
{ "type": "Feature", "properties": { "VILLAGE_ID": 152, "NAME": "Kalesar", "BLOCK_NAME": "Pathankot", "SUB_DISTRI": "Pathankot", "DISTRICT": "Gurdaspur", "STATE_UT": "Punjab", "C_CODE01": "0301000200011500", "LEVEL": "Village" }, "geometry": { "type": "Point", "coordinates": [ 75.574271219233879, 32.273738140592151 ] } },
{ "type": "Feature", "properties": { "VILLAGE_ID": 153, "NAME": "Panjor", "BLOCK_NAME": "Pathankot", "SUB_DISTRI": "Pathankot", "DISTRICT": "Gurdaspur", "STATE_UT": "Punjab", "C_CODE01": "0301000200011600", "LEVEL": "Village" }, "geometry": { "type": "Point", "coordinates": [ 75.585857019044198, 32.271960222997748 ] } },
{ "type": "Feature", "properties": { "VILLAGE_ID": 154, "NAME": "Chhotepur", "BLOCK_NAME": "Pathankot", "SUB_DISTRI": "Pathankot", "DISTRICT": "Gurdaspur", "STATE_UT": "Punjab", "C_CODE01": "0301000200007900", "LEVEL": "Village" }, "geometry": { "type": "Point", "coordinates": [ 75.649900703571888, 32.273220510322659 ] } },
{ "type": "Feature", "properties": { "VILLAGE_ID": 155, "NAME": "Dadwal", "BLOCK_NAME": "Pathankot", "SUB_DISTRI": "Pathankot", "DISTRICT": "Gurdaspur", "STATE_UT": "Punjab", "C_CODE01": "0301000200010300", "LEVEL": "Village" }, "geometry": { "type": "Point", "coordinates": [ 75.618466549256738, 32.270070086678899 ] } },
{ "type": "Feature", "properties": { "VILLAGE_ID": 156, "NAME": "Pathankot", "BLOCK_NAME": "Pathankot", "SUB_DISTRI": "Pathankot", "DISTRICT": "Gurdaspur", "STATE_UT": "Punjab", "C_CODE01": "0301000240103000", "LEVEL": "Town" }, "geometry": { "type": "Point", "coordinates": [ 75.679043658853004, 32.260416191018251 ] } },
{ "type": "Feature", "properties": { "VILLAGE_ID": 157, "NAME": "Siyonti Tarf Narot", "BLOCK_NAME": "Narot Jaimal Singh", "SUB_DISTRI": "Pathankot", "DISTRICT": "Gurdaspur", "STATE_UT": "Punjab", "C_CODE01": "0301000200026400", "LEVEL": "Village" }, "geometry": { "type": "Point", "coordinates": [ 75.485744061486955, 32.26707225558782 ] } },
{ "type": "Feature", "properties": { "VILLAGE_ID": 158, "NAME": "Fatto Chak", "BLOCK_NAME": "Narot Jaimal Singh", "SUB_DISTRI": "Pathankot", "DISTRICT": "Gurdaspur", "STATE_UT": "Punjab", "C_CODE01": "0301000200034900", "LEVEL": "Village" }, "geometry": { "type": "Point", "coordinates": [ 75.431284342437166, 32.269450303259468 ] } },
{ "type": "Feature", "properties": { "VILLAGE_ID": 159, "NAME": "Chatwal", "BLOCK_NAME": "Dhar Kalan", "SUB_DISTRI": "Pathankot", "DISTRICT": "Gurdaspur", "STATE_UT": "Punjab", "C_CODE01": "0301000200005700", "LEVEL": "Village" }, "geometry": { "type": "Point", "coordinates": [ 75.751718710799068, 32.269167460821045 ] } },
{ "type": "Feature", "properties": { "VILLAGE_ID": 160, "NAME": "Kiri Khurd", "BLOCK_NAME": "Narot Jaimal Singh", "SUB_DISTRI": "Pathankot", "DISTRICT": "Gurdaspur", "STATE_UT": "Punjab", "C_CODE01": "0301000200025300", "LEVEL": "Village" }, "geometry": { "type": "Point", "coordinates": [ 75.519839548960462, 32.26441928163721 ] } },
{ "type": "Feature", "properties": { "VILLAGE_ID": 161, "NAME": "Khanpur", "BLOCK_NAME": "Pathankot", "SUB_DISTRI": "Pathankot", "DISTRICT": "Gurdaspur", "STATE_UT": "Punjab", "C_CODE01": "0301000200007000", "LEVEL": "Village" }, "geometry": { "type": "Point", "coordinates": [ 75.683721700347391, 32.270870217729581 ] } },
{ "type": "Feature", "properties": { "VILLAGE_ID": 162, "NAME": "Asa Bano", "BLOCK_NAME": "Pathankot", "SUB_DISTRI": "Pathankot", "DISTRICT": "Gurdaspur", "STATE_UT": "Punjab", "C_CODE01": "0301000200010400", "LEVEL": "Village" }, "geometry": { "type": "Point", "coordinates": [ 75.603645058133907, 32.267531106920806 ] } },
{ "type": "Feature", "properties": { "VILLAGE_ID": 163, "NAME": "Udipur Aima", "BLOCK_NAME": "Narot Jaimal Singh", "SUB_DISTRI": "Pathankot", "DISTRICT": "Gurdaspur", "STATE_UT": "Punjab", "C_CODE01": "0301000200031400", "LEVEL": "Village" }, "geometry": { "type": "Point", "coordinates": [ 75.444242181636611, 32.266929381365898 ] } },
{ "type": "Feature", "properties": { "VILLAGE_ID": 164, "NAME": "Tahra", "BLOCK_NAME": "Dhar Kalan", "SUB_DISTRI": "Pathankot", "DISTRICT": "Gurdaspur", "STATE_UT": "Punjab", "C_CODE01": "0301000200005600", "LEVEL": "Village" }, "geometry": { "type": "Point", "coordinates": [ 75.765070352388932, 32.269010510706863 ] } },
{ "type": "Feature", "properties": { "VILLAGE_ID": 165, "NAME": "Barsun", "BLOCK_NAME": "Pathankot", "SUB_DISTRI": "Pathankot", "DISTRICT": "Gurdaspur", "STATE_UT": "Punjab", "C_CODE01": "0301000200005800", "LEVEL": "Village" }, "geometry": { "type": "Point", "coordinates": [ 75.736828473428005, 32.266382490442297 ] } },
{ "type": "Feature", "properties": { "VILLAGE_ID": 166, "NAME": "Aima Mughlan", "BLOCK_NAME": "Pathankot", "SUB_DISTRI": "Pathankot", "DISTRICT": "Gurdaspur", "STATE_UT": "Punjab", "C_CODE01": "0301000200011700", "LEVEL": "Village" }, "geometry": { "type": "Point", "coordinates": [ 75.578383939972966, 32.266000391506395 ] } },
{ "type": "Feature", "properties": { "VILLAGE_ID": 167, "NAME": "Chakral", "BLOCK_NAME": "Narot Jaimal Singh", "SUB_DISTRI": "Pathankot", "DISTRICT": "Gurdaspur", "STATE_UT": "Punjab", "C_CODE01": "0301000200019300", "LEVEL": "Village" }, "geometry": { "type": "Point", "coordinates": [ 75.532431794521827, 32.261157382774783 ] } },
{ "type": "Feature", "properties": { "VILLAGE_ID": 168, "NAME": "Bahadar Lahri", "BLOCK_NAME": "Pathankot", "SUB_DISTRI": "Pathankot", "DISTRICT": "Gurdaspur", "STATE_UT": "Punjab", "C_CODE01": "0301000200010000", "LEVEL": "Village" }, "geometry": { "type": "Point", "coordinates": [ 75.629995831770998, 32.266270441895387 ] } },
{ "type": "Feature", "properties": { "VILLAGE_ID": 169, "NAME": "Bani Lodhi", "BLOCK_NAME": "Pathankot", "SUB_DISTRI": "Pathankot", "DISTRICT": "Gurdaspur", "STATE_UT": "Punjab", "C_CODE01": "0301000200019200", "LEVEL": "Village" }, "geometry": { "type": "Point", "coordinates": [ 75.559089447161568, 32.263481026647909 ] } },
{ "type": "Feature", "properties": { "VILLAGE_ID": 170, "NAME": "Gatora", "BLOCK_NAME": "Pathankot", "SUB_DISTRI": "Pathankot", "DISTRICT": "Gurdaspur", "STATE_UT": "Punjab", "C_CODE01": "0301000200011800", "LEVEL": "Village" }, "geometry": { "type": "Point", "coordinates": [ 75.594486026059798, 32.263827285068487 ] } },
{ "type": "Feature", "properties": { "VILLAGE_ID": 171, "NAME": "Kilpur", "BLOCK_NAME": "Narot Jaimal Singh", "SUB_DISTRI": "Pathankot", "DISTRICT": "Gurdaspur", "STATE_UT": "Punjab", "C_CODE01": "0301000200035000", "LEVEL": "Village" }, "geometry": { "type": "Point", "coordinates": [ 75.433937363057012, 32.260966085575483 ] } },
{ "type": "Feature", "properties": { "VILLAGE_ID": 172, "NAME": "Adam Barwan", "BLOCK_NAME": "Narot Jaimal Singh", "SUB_DISTRI": "Pathankot", "DISTRICT": "Gurdaspur", "STATE_UT": "Punjab", "C_CODE01": "0301000200035300", "LEVEL": "Village" }, "geometry": { "type": "Point", "coordinates": [ 75.411471999831022, 32.259205716995019 ] } },
{ "type": "Feature", "properties": { "VILLAGE_ID": 173, "NAME": "Kanshi Barwan", "BLOCK_NAME": "Narot Jaimal Singh", "SUB_DISTRI": "Pathankot", "DISTRICT": "Gurdaspur", "STATE_UT": "Punjab", "C_CODE01": "0301000200035400", "LEVEL": "Village" }, "geometry": { "type": "Point", "coordinates": [ 75.402917217401921, 32.258753244574557 ] } },
{ "type": "Feature", "properties": { "VILLAGE_ID": 174, "NAME": "Jaswan", "BLOCK_NAME": "Narot Jaimal Singh", "SUB_DISTRI": "Pathankot", "DISTRICT": "Gurdaspur", "STATE_UT": "Punjab", "C_CODE01": "0301000200026500", "LEVEL": "Village" }, "geometry": { "type": "Point", "coordinates": [ 75.480747686872334, 32.257310497070591 ] } },
{ "type": "Feature", "properties": { "VILLAGE_ID": 175, "NAME": "Ghazi Barwan", "BLOCK_NAME": "Narot Jaimal Singh", "SUB_DISTRI": "Pathankot", "DISTRICT": "Gurdaspur", "STATE_UT": "Punjab", "C_CODE01": "0301000200035100", "LEVEL": "Village" }, "geometry": { "type": "Point", "coordinates": [ 75.422901167924252, 32.259356005025495 ] } },
{ "type": "Feature", "properties": { "VILLAGE_ID": 176, "NAME": "Lahri Mahantan", "BLOCK_NAME": "Narot Jaimal Singh", "SUB_DISTRI": "Pathankot", "DISTRICT": "Gurdaspur", "STATE_UT": "Punjab", "C_CODE01": "0301000200019400", "LEVEL": "Village" }, "geometry": { "type": "Point", "coordinates": [ 75.539838557015983, 32.253610975801337 ] } },
{ "type": "Feature", "properties": { "VILLAGE_ID": 177, "NAME": "Malikpur", "BLOCK_NAME": "Pathankot", "SUB_DISTRI": "Pathankot", "DISTRICT": "Gurdaspur", "STATE_UT": "Punjab", "C_CODE01": "0301000200010200", "LEVEL": "Village" }, "geometry": { "type": "Point", "coordinates": [ 75.606421313242066, 32.256177833139276 ] } },
{ "type": "Feature", "properties": { "VILLAGE_ID": 178, "NAME": "Bahadurpur", "BLOCK_NAME": "Narot Jaimal Singh", "SUB_DISTRI": "Pathankot", "DISTRICT": "Gurdaspur", "STATE_UT": "Punjab", "C_CODE01": "0301000200031300", "LEVEL": "Village" }, "geometry": { "type": "Point", "coordinates": [ 75.456186146463295, 32.258515949111491 ] } },
{ "type": "Feature", "properties": { "VILLAGE_ID": 179, "NAME": "Muradpur", "BLOCK_NAME": "Pathankot", "SUB_DISTRI": "Pathankot", "DISTRICT": "Gurdaspur", "STATE_UT": "Punjab", "C_CODE01": "0301000200011900", "LEVEL": "Village" }, "geometry": { "type": "Point", "coordinates": [ 75.582321610403994, 32.258092056006191 ] } },
{ "type": "Feature", "properties": { "VILLAGE_ID": 180, "NAME": "Bharoli Khurd", "BLOCK_NAME": "Pathankot", "SUB_DISTRI": "Pathankot", "DISTRICT": "Gurdaspur", "STATE_UT": "Punjab", "C_CODE01": "0301000200010100", "LEVEL": "Village" }, "geometry": { "type": "Point", "coordinates": [ 75.631606886758789, 32.255789295867352 ] } },
{ "type": "Feature", "properties": { "VILLAGE_ID": 181, "NAME": "Mangial", "BLOCK_NAME": "Narot Jaimal Singh", "SUB_DISTRI": "Pathankot", "DISTRICT": "Gurdaspur", "STATE_UT": "Punjab", "C_CODE01": "0301000200026600", "LEVEL": "Village" }, "geometry": { "type": "Point", "coordinates": [ 75.50830685740786, 32.256774565134918 ] } },
{ "type": "Feature", "properties": { "VILLAGE_ID": 182, "NAME": "Polla", "BLOCK_NAME": "Narot Jaimal Singh", "SUB_DISTRI": "Pathankot", "DISTRICT": "Gurdaspur", "STATE_UT": "Punjab", "C_CODE01": "0301000200031200", "LEVEL": "Village" }, "geometry": { "type": "Point", "coordinates": [ 75.442758723162143, 32.254572089317044 ] } },
{ "type": "Feature", "properties": { "VILLAGE_ID": 183, "NAME": "Sundar Chak", "BLOCK_NAME": "Pathankot", "SUB_DISTRI": "Pathankot", "DISTRICT": "Gurdaspur", "STATE_UT": "Punjab", "C_CODE01": "0301000200019100", "LEVEL": "Village" }, "geometry": { "type": "Point", "coordinates": [ 75.559798224478129, 32.252145116106661 ] } },
{ "type": "Feature", "properties": { "VILLAGE_ID": 184, "NAME": "Khudaipur", "BLOCK_NAME": "Narot Jaimal Singh", "SUB_DISTRI": "Pathankot", "DISTRICT": "Gurdaspur", "STATE_UT": "Punjab", "C_CODE01": "0301000200035500", "LEVEL": "Village" }, "geometry": { "type": "Point", "coordinates": [ 75.400066351974345, 32.245968951700036 ] } },
{ "type": "Feature", "properties": { "VILLAGE_ID": 185, "NAME": "Daulatpur", "BLOCK_NAME": "Pathankot", "SUB_DISTRI": "Pathankot", "DISTRICT": "Gurdaspur", "STATE_UT": "Punjab", "C_CODE01": "0301000240104000", "LEVEL": "Town" }, "geometry": { "type": "Point", "coordinates": [ 75.620363953768404, 32.247165455449796 ] } },
{ "type": "Feature", "properties": { "VILLAGE_ID": 186, "NAME": "Basau Barwan", "BLOCK_NAME": "Narot Jaimal Singh", "SUB_DISTRI": "Pathankot", "DISTRICT": "Gurdaspur", "STATE_UT": "Punjab", "C_CODE01": "0301000200036000", "LEVEL": "Village" }, "geometry": { "type": "Point", "coordinates": [ 75.415756403536918, 32.249190753616695 ] } },
{ "type": "Feature", "properties": { "VILLAGE_ID": 187, "NAME": "Kathlaur", "BLOCK_NAME": "Narot Jaimal Singh", "SUB_DISTRI": "Pathankot", "DISTRICT": "Gurdaspur", "STATE_UT": "Punjab", "C_CODE01": "0301000200031100", "LEVEL": "Village" }, "geometry": { "type": "Point", "coordinates": [ 75.465163242317573, 32.243531491997643 ] } },
{ "type": "Feature", "properties": { "VILLAGE_ID": 188, "NAME": "Jaitpur", "BLOCK_NAME": "Narot Jaimal Singh", "SUB_DISTRI": "Pathankot", "DISTRICT": "Gurdaspur", "STATE_UT": "Punjab", "C_CODE01": "0301000200035600", "LEVEL": "Village" }, "geometry": { "type": "Point", "coordinates": [ 75.392631121367103, 32.246650834283841 ] } },
{ "type": "Feature", "properties": { "VILLAGE_ID": 189, "NAME": "Sharif Chak", "BLOCK_NAME": "Narot Jaimal Singh", "SUB_DISTRI": "Pathankot", "DISTRICT": "Gurdaspur", "STATE_UT": "Punjab", "C_CODE01": "0301000200025200", "LEVEL": "Village" }, "geometry": { "type": "Point", "coordinates": [ 75.521047163477604, 32.246168700494792 ] } },
{ "type": "Feature", "properties": { "VILLAGE_ID": 190, "NAME": "Dhaki", "BLOCK_NAME": "Pathankot", "SUB_DISTRI": "Pathankot", "DISTRICT": "Gurdaspur", "STATE_UT": "Punjab", "C_CODE01": "0301000200012600", "LEVEL": "Village" }, "geometry": { "type": "Point", "coordinates": [ 75.651646867425313, 32.241422106087732 ] } },
{ "type": "Feature", "properties": { "VILLAGE_ID": 191, "NAME": "Kathana", "BLOCK_NAME": "Narot Jaimal Singh", "SUB_DISTRI": "Pathankot", "DISTRICT": "Gurdaspur", "STATE_UT": "Punjab", "C_CODE01": "0301000200036200", "LEVEL": "Village" }, "geometry": { "type": "Point", "coordinates": [ 75.43096316524057, 32.250115902732695 ] } },
{ "type": "Feature", "properties": { "VILLAGE_ID": 192, "NAME": "Jakhbar", "BLOCK_NAME": "Pathankot", "SUB_DISTRI": "Pathankot", "DISTRICT": "Gurdaspur", "STATE_UT": "Punjab", "C_CODE01": "0301000200019000", "LEVEL": "Village" }, "geometry": { "type": "Point", "coordinates": [ 75.577184015478664, 32.251649529783741 ] } },
{ "type": "Feature", "properties": { "VILLAGE_ID": 193, "NAME": "Narot Mehra", "BLOCK_NAME": "Pathankot", "SUB_DISTRI": "Pathankot", "DISTRICT": "Gurdaspur", "STATE_UT": "Punjab", "C_CODE01": "0301000200012000", "LEVEL": "Village" }, "geometry": { "type": "Point", "coordinates": [ 75.588012883438338, 32.245792272749753 ] } },
{ "type": "Feature", "properties": { "VILLAGE_ID": 194, "NAME": "Malpur", "BLOCK_NAME": "Narot Jaimal Singh", "SUB_DISTRI": "Pathankot", "DISTRICT": "Gurdaspur", "STATE_UT": "Punjab", "C_CODE01": "0301000200026700", "LEVEL": "Village" }, "geometry": { "type": "Point", "coordinates": [ 75.504070886853853, 32.246854515268971 ] } },
{ "type": "Feature", "properties": { "VILLAGE_ID": 195, "NAME": "Chak Sundar", "BLOCK_NAME": "Narot Jaimal Singh", "SUB_DISTRI": "Pathankot", "DISTRICT": "Gurdaspur", "STATE_UT": "Punjab", "C_CODE01": "0301000200019500", "LEVEL": "Village" }, "geometry": { "type": "Point", "coordinates": [ 75.547007906789688, 32.248011955804103 ] } },
{ "type": "Feature", "properties": { "VILLAGE_ID": 196, "NAME": "Bharoli Kalan", "BLOCK_NAME": "Pathankot", "SUB_DISTRI": "Pathankot", "DISTRICT": "Gurdaspur", "STATE_UT": "Punjab", "C_CODE01": "0301000240105000", "LEVEL": "Town" }, "geometry": { "type": "Point", "coordinates": [ 75.638151476754814, 32.242800795027556 ] } },
{ "type": "Feature", "properties": { "VILLAGE_ID": 197, "NAME": "Jainpur", "BLOCK_NAME": "Narot Jaimal Singh", "SUB_DISTRI": "Pathankot", "DISTRICT": "Gurdaspur", "STATE_UT": "Punjab", "C_CODE01": "0301000200036100", "LEVEL": "Village" }, "geometry": { "type": "Point", "coordinates": [ 75.422964545297717, 32.243708902255896 ] } },
{ "type": "Feature", "properties": { "VILLAGE_ID": 198, "NAME": "Bahlolpur", "BLOCK_NAME": "Pathankot", "SUB_DISTRI": "Pathankot", "DISTRICT": "Gurdaspur", "STATE_UT": "Punjab", "C_CODE01": "0301000200012100", "LEVEL": "Village" }, "geometry": { "type": "Point", "coordinates": [ 75.598575436045934, 32.247169160782306 ] } },
{ "type": "Feature", "properties": { "VILLAGE_ID": 199, "NAME": "Charak", "BLOCK_NAME": "Narot Jaimal Singh", "SUB_DISTRI": "Pathankot", "DISTRICT": "Gurdaspur", "STATE_UT": "Punjab", "C_CODE01": "0301000200036300", "LEVEL": "Village" }, "geometry": { "type": "Point", "coordinates": [ 75.441286178649904, 32.24629049459395 ] } },
{ "type": "Feature", "properties": { "VILLAGE_ID": 200, "NAME": "Sarna", "BLOCK_NAME": "Pathankot", "SUB_DISTRI": "Pathankot", "DISTRICT": "Gurdaspur", "STATE_UT": "Punjab", "C_CODE01": "0301000200012200", "LEVEL": "Village" }, "geometry": { "type": "Point", "coordinates": [ 75.603583210721467, 32.240407281812935 ] } },
{ "type": "Feature", "properties": { "VILLAGE_ID": 201, "NAME": "Sailli", "BLOCK_NAME": "Pathankot", "SUB_DISTRI": "Pathankot", "DISTRICT": "Gurdaspur", "STATE_UT": "Punjab", "C_CODE01": "0301000200012700", "LEVEL": "Village" }, "geometry": { "type": "Point", "coordinates": [ 75.676770740566198, 32.244232225559692 ] } },
{ "type": "Feature", "properties": { "VILLAGE_ID": 202, "NAME": "Lehri Bawian", "BLOCK_NAME": "Pathankot", "SUB_DISTRI": "Pathankot", "DISTRICT": "Gurdaspur", "STATE_UT": "Punjab", "C_CODE01": "0301000200018900", "LEVEL": "Village" }, "geometry": { "type": "Point", "coordinates": [ 75.573109053707554, 32.243534870979005 ] } },
{ "type": "Feature", "properties": { "VILLAGE_ID": 203, "NAME": "Katani", "BLOCK_NAME": "Narot Jaimal Singh", "SUB_DISTRI": "Pathankot", "DISTRICT": "Gurdaspur", "STATE_UT": "Punjab", "C_CODE01": "0301000200026800", "LEVEL": "Village" }, "geometry": { "type": "Point", "coordinates": [ 75.495891681441861, 32.238079261100943 ] } },
{ "type": "Feature", "properties": { "VILLAGE_ID": 204, "NAME": "Bhagwansar", "BLOCK_NAME": "Pathankot", "SUB_DISTRI": "Pathankot", "DISTRICT": "Gurdaspur", "STATE_UT": "Punjab", "C_CODE01": "0301000200019600", "LEVEL": "Village" }, "geometry": { "type": "Point", "coordinates": [ 75.551811798508012, 32.241663494172144 ] } },
{ "type": "Feature", "properties": { "VILLAGE_ID": 205, "NAME": "Bhagwal", "BLOCK_NAME": "Narot Jaimal Singh", "SUB_DISTRI": "Pathankot", "DISTRICT": "Gurdaspur", "STATE_UT": "Punjab", "C_CODE01": "0301000200035900", "LEVEL": "Village" }, "geometry": { "type": "Point", "coordinates": [ 75.408696871006768, 32.241013896887821 ] } },
{ "type": "Feature", "properties": { "VILLAGE_ID": 206, "NAME": "Muradpur", "BLOCK_NAME": "Narot Jaimal Singh", "SUB_DISTRI": "Pathankot", "DISTRICT": "Gurdaspur", "STATE_UT": "Punjab", "C_CODE01": "0301000200036500", "LEVEL": "Village" }, "geometry": { "type": "Point", "coordinates": [ 75.431498901098422, 32.240759191356013 ] } },
{ "type": "Feature", "properties": { "VILLAGE_ID": 207, "NAME": "Kolian", "BLOCK_NAME": "Narot Jaimal Singh", "SUB_DISTRI": "Pathankot", "DISTRICT": "Gurdaspur", "STATE_UT": "Punjab", "C_CODE01": "0301000200036400", "LEVEL": "Village" }, "geometry": { "type": "Point", "coordinates": [ 75.440824010575895, 32.238952435424586 ] } },
{ "type": "Feature", "properties": { "VILLAGE_ID": 208, "NAME": "Bhoa", "BLOCK_NAME": "Pathankot", "SUB_DISTRI": "Pathankot", "DISTRICT": "Gurdaspur", "STATE_UT": "Punjab", "C_CODE01": "0301000200019900", "LEVEL": "Village" }, "geometry": { "type": "Point", "coordinates": [ 75.553763260563045, 32.230365665111769 ] } },
{ "type": "Feature", "properties": { "VILLAGE_ID": 209, "NAME": "Chak Bhagwansar", "BLOCK_NAME": "Narot Jaimal Singh", "SUB_DISTRI": "Pathankot", "DISTRICT": "Gurdaspur", "STATE_UT": "Punjab", "C_CODE01": "0301000200019700", "LEVEL": "Village" }, "geometry": { "type": "Point", "coordinates": [ 75.536276555489934, 32.240074500677913 ] } },
{ "type": "Feature", "properties": { "VILLAGE_ID": 210, "NAME": "Nangal", "BLOCK_NAME": "Narot Jaimal Singh", "SUB_DISTRI": "Pathankot", "DISTRICT": "Gurdaspur", "STATE_UT": "Punjab", "C_CODE01": "0301000200025100", "LEVEL": "Village" }, "geometry": { "type": "Point", "coordinates": [ 75.516321598307101, 32.236215568582573 ] } },
{ "type": "Feature", "properties": { "VILLAGE_ID": 211, "NAME": "Pharwal", "BLOCK_NAME": "Narot Jaimal Singh", "SUB_DISTRI": "Pathankot", "DISTRICT": "Gurdaspur", "STATE_UT": "Punjab", "C_CODE01": "0301000200036800", "LEVEL": "Village" }, "geometry": { "type": "Point", "coordinates": [ 75.414349562947919, 32.231767780190189 ] } },
{ "type": "Feature", "properties": { "VILLAGE_ID": 212, "NAME": "Barath", "BLOCK_NAME": "Pathankot", "SUB_DISTRI": "Pathankot", "DISTRICT": "Gurdaspur", "STATE_UT": "Punjab", "C_CODE01": "0301000200018800", "LEVEL": "Village" }, "geometry": { "type": "Point", "coordinates": [ 75.574247112831529, 32.236160384484698 ] } },
{ "type": "Feature", "properties": { "VILLAGE_ID": 213, "NAME": "Raj Parura", "BLOCK_NAME": "Pathankot", "SUB_DISTRI": "Pathankot", "DISTRICT": "Gurdaspur", "STATE_UT": "Punjab", "C_CODE01": "0301000200018600", "LEVEL": "Village" }, "geometry": { "type": "Point", "coordinates": [ 75.5894349526925, 32.233419308084365 ] } },
{ "type": "Feature", "properties": { "VILLAGE_ID": 214, "NAME": "Lado Chak", "BLOCK_NAME": "Pathankot", "SUB_DISTRI": "Pathankot", "DISTRICT": "Gurdaspur", "STATE_UT": "Punjab", "C_CODE01": "0301000200012500", "LEVEL": "Village" }, "geometry": { "type": "Point", "coordinates": [ 75.623638431625992, 32.230786924581857 ] } },
{ "type": "Feature", "properties": { "VILLAGE_ID": 215, "NAME": "Jamalpur", "BLOCK_NAME": "Pathankot", "SUB_DISTRI": "Pathankot", "DISTRICT": "Gurdaspur", "STATE_UT": "Punjab", "C_CODE01": "0301000200012300", "LEVEL": "Village" }, "geometry": { "type": "Point", "coordinates": [ 75.607170825371952, 32.233190906981747 ] } },
{ "type": "Feature", "properties": { "VILLAGE_ID": 216, "NAME": "Hamza", "BLOCK_NAME": "Narot Jaimal Singh", "SUB_DISTRI": "Pathankot", "DISTRICT": "Gurdaspur", "STATE_UT": "Punjab", "C_CODE01": "0301000200035700", "LEVEL": "Village" }, "geometry": { "type": "Point", "coordinates": [ 75.395799297306567, 32.232149064879088 ] } },
{ "type": "Feature", "properties": { "VILLAGE_ID": 217, "NAME": "Sheikhupur  Majiri", "BLOCK_NAME": "Narot Jaimal Singh", "SUB_DISTRI": "Pathankot", "DISTRICT": "Gurdaspur", "STATE_UT": "Punjab", "C_CODE01": "0301000200036700", "LEVEL": "Village" }, "geometry": { "type": "Point", "coordinates": [ 75.422534794811824, 32.225179326889176 ] } },
{ "type": "Feature", "properties": { "VILLAGE_ID": 218, "NAME": "Datyal", "BLOCK_NAME": "Narot Jaimal Singh", "SUB_DISTRI": "Pathankot", "DISTRICT": "Gurdaspur", "STATE_UT": "Punjab", "C_CODE01": "0301000200036600", "LEVEL": "Village" }, "geometry": { "type": "Point", "coordinates": [ 75.426167507113476, 32.234058260179431 ] } },
{ "type": "Feature", "properties": { "VILLAGE_ID": 219, "NAME": "Sohaura Kalan", "BLOCK_NAME": "Narot Jaimal Singh", "SUB_DISTRI": "Pathankot", "DISTRICT": "Gurdaspur", "STATE_UT": "Punjab", "C_CODE01": "0301000200026900", "LEVEL": "Village" }, "geometry": { "type": "Point", "coordinates": [ 75.490532099966615, 32.227043825289506 ] } },
{ "type": "Feature", "properties": { "VILLAGE_ID": 220, "NAME": "Chak Bhoia", "BLOCK_NAME": "Narot Jaimal Singh", "SUB_DISTRI": "Pathankot", "DISTRICT": "Gurdaspur", "STATE_UT": "Punjab", "C_CODE01": "0301000200019800", "LEVEL": "Village" }, "geometry": { "type": "Point", "coordinates": [ 75.532726023935098, 32.229052466319274 ] } },
{ "type": "Feature", "properties": { "VILLAGE_ID": 221, "NAME": "Madho Jainpur", "BLOCK_NAME": "Narot Jaimal Singh", "SUB_DISTRI": "Pathankot", "DISTRICT": "Gurdaspur", "STATE_UT": "Punjab", "C_CODE01": "0301000200035800", "LEVEL": "Village" }, "geometry": { "type": "Point", "coordinates": [ 75.406715795167685, 32.231200644309176 ] } },
{ "type": "Feature", "properties": { "VILLAGE_ID": 222, "NAME": "Firoza", "BLOCK_NAME": "Narot Jaimal Singh", "SUB_DISTRI": "Pathankot", "DISTRICT": "Gurdaspur", "STATE_UT": "Punjab", "C_CODE01": "0301000200037900", "LEVEL": "Village" }, "geometry": { "type": "Point", "coordinates": [ 75.434965252602609, 32.231692647356404 ] } },
{ "type": "Feature", "properties": { "VILLAGE_ID": 223, "NAME": "Raipur", "BLOCK_NAME": "Narot Jaimal Singh", "SUB_DISTRI": "Pathankot", "DISTRICT": "Gurdaspur", "STATE_UT": "Punjab", "C_CODE01": "0301000200030800", "LEVEL": "Village" }, "geometry": { "type": "Point", "coordinates": [ 75.475611339517968, 32.228740080897992 ] } },
{ "type": "Feature", "properties": { "VILLAGE_ID": 224, "NAME": "Barkat", "BLOCK_NAME": "Narot Jaimal Singh", "SUB_DISTRI": "Pathankot", "DISTRICT": "Gurdaspur", "STATE_UT": "Punjab", "C_CODE01": "0301000200031000", "LEVEL": "Village" }, "geometry": { "type": "Point", "coordinates": [ 75.455483252351783, 32.230575455482068 ] } },
{ "type": "Feature", "properties": { "VILLAGE_ID": 225, "NAME": "Sohaura Khurd", "BLOCK_NAME": "Narot Jaimal Singh", "SUB_DISTRI": "Pathankot", "DISTRICT": "Gurdaspur", "STATE_UT": "Punjab", "C_CODE01": "0301000200025000", "LEVEL": "Village" }, "geometry": { "type": "Point", "coordinates": [ 75.513808466039535, 32.224494025867656 ] } },
{ "type": "Feature", "properties": { "VILLAGE_ID": 226, "NAME": "Bhattian", "BLOCK_NAME": "Narot Jaimal Singh", "SUB_DISTRI": "Pathankot", "DISTRICT": "Gurdaspur", "STATE_UT": "Punjab", "C_CODE01": "0301000200038000", "LEVEL": "Village" }, "geometry": { "type": "Point", "coordinates": [ 75.441331632139324, 32.222840279375696 ] } },
{ "type": "Feature", "properties": { "VILLAGE_ID": 227, "NAME": "Khoba", "BLOCK_NAME": "Pathankot", "SUB_DISTRI": "Pathankot", "DISTRICT": "Gurdaspur", "STATE_UT": "Punjab", "C_CODE01": "0301000200018700", "LEVEL": "Village" }, "geometry": { "type": "Point", "coordinates": [ 75.576321807522135, 32.228382333030105 ] } },
{ "type": "Feature", "properties": { "VILLAGE_ID": 228, "NAME": "Sherpur", "BLOCK_NAME": "Narot Jaimal Singh", "SUB_DISTRI": "Pathankot", "DISTRICT": "Gurdaspur", "STATE_UT": "Punjab", "C_CODE01": "0301000200037800", "LEVEL": "Village" }, "geometry": { "type": "Point", "coordinates": [ 75.437211445365108, 32.225299718849897 ] } },
{ "type": "Feature", "properties": { "VILLAGE_ID": 229, "NAME": "Jaswan Lahri", "BLOCK_NAME": "Pathankot", "SUB_DISTRI": "Pathankot", "DISTRICT": "Gurdaspur", "STATE_UT": "Punjab", "C_CODE01": "0301000200018500", "LEVEL": "Village" }, "geometry": { "type": "Point", "coordinates": [ 75.585095325304692, 32.224777112741897 ] } },
{ "type": "Feature", "properties": { "VILLAGE_ID": 230, "NAME": "Gol", "BLOCK_NAME": "Narot Jaimal Singh", "SUB_DISTRI": "Pathankot", "DISTRICT": "Gurdaspur", "STATE_UT": "Punjab", "C_CODE01": "0301000200030900", "LEVEL": "Village" }, "geometry": { "type": "Point", "coordinates": [ 75.457557824715195, 32.225244169197708 ] } },
{ "type": "Feature", "properties": { "VILLAGE_ID": 231, "NAME": "Chak Paswala", "BLOCK_NAME": "Pathankot", "SUB_DISTRI": "Pathankot", "DISTRICT": "Gurdaspur", "STATE_UT": "Punjab", "C_CODE01": "0301000200018300", "LEVEL": "Village" }, "geometry": { "type": "Point", "coordinates": [ 75.598118075872705, 32.224416546735981 ] } },
{ "type": "Feature", "properties": { "VILLAGE_ID": 232, "NAME": "Deriwala", "BLOCK_NAME": "Pathankot", "SUB_DISTRI": "Pathankot", "DISTRICT": "Gurdaspur", "STATE_UT": "Punjab", "C_CODE01": "0301000200012400", "LEVEL": "Village" }, "geometry": { "type": "Point", "coordinates": [ 75.611617723561167, 32.220506424129312 ] } },
{ "type": "Feature", "properties": { "VILLAGE_ID": 233, "NAME": "Shahpur Gopi", "BLOCK_NAME": "Narot Jaimal Singh", "SUB_DISTRI": "Pathankot", "DISTRICT": "Gurdaspur", "STATE_UT": "Punjab", "C_CODE01": "0301000200038100", "LEVEL": "Village" }, "geometry": { "type": "Point", "coordinates": [ 75.449450928806428, 32.222115608928561 ] } },
{ "type": "Feature", "properties": { "VILLAGE_ID": 234, "NAME": "Tajpur", "BLOCK_NAME": "Pathankot", "SUB_DISTRI": "Pathankot", "DISTRICT": "Gurdaspur", "STATE_UT": "Punjab", "C_CODE01": "0301000200013000", "LEVEL": "Village" }, "geometry": { "type": "Point", "coordinates": [ 75.632666800432006, 32.21977311376552 ] } },
{ "type": "Feature", "properties": { "VILLAGE_ID": 235, "NAME": "Gobindsar", "BLOCK_NAME": "Pathankot", "SUB_DISTRI": "Pathankot", "DISTRICT": "Gurdaspur", "STATE_UT": "Punjab", "C_CODE01": "0301000200020100", "LEVEL": "Village" }, "geometry": { "type": "Point", "coordinates": [ 75.562108419960694, 32.221021259757919 ] } },
{ "type": "Feature", "properties": { "VILLAGE_ID": 236, "NAME": "Paharipur", "BLOCK_NAME": "Narot Jaimal Singh", "SUB_DISTRI": "Pathankot", "DISTRICT": "Gurdaspur", "STATE_UT": "Punjab", "C_CODE01": "0301000200036900", "LEVEL": "Village" }, "geometry": { "type": "Point", "coordinates": [ 75.399280303803707, 32.220681206037575 ] } },
{ "type": "Feature", "properties": { "VILLAGE_ID": 237, "NAME": "Khush Nagar", "BLOCK_NAME": "Narot Jaimal Singh", "SUB_DISTRI": "Pathankot", "DISTRICT": "Gurdaspur", "STATE_UT": "Punjab", "C_CODE01": "0301000200027000", "LEVEL": "Village" }, "geometry": { "type": "Point", "coordinates": [ 75.503609106798066, 32.216472918186078 ] } },
{ "type": "Feature", "properties": { "VILLAGE_ID": 238, "NAME": "Chhaurian", "BLOCK_NAME": "Narot Jaimal Singh", "SUB_DISTRI": "Pathankot", "DISTRICT": "Gurdaspur", "STATE_UT": "Punjab", "C_CODE01": "0301000200030600", "LEVEL": "Village" }, "geometry": { "type": "Point", "coordinates": [ 75.475997714000798, 32.219139193117897 ] } },
{ "type": "Feature", "properties": { "VILLAGE_ID": 239, "NAME": "Aima Gujjran", "BLOCK_NAME": "Pathankot", "SUB_DISTRI": "Pathankot", "DISTRICT": "Gurdaspur", "STATE_UT": "Punjab", "C_CODE01": "0301000200018400", "LEVEL": "Village" }, "geometry": { "type": "Point", "coordinates": [ 75.591477428901086, 32.219695708848974 ] } },
{ "type": "Feature", "properties": { "VILLAGE_ID": 240, "NAME": "Datyal", "BLOCK_NAME": "Narot Jaimal Singh", "SUB_DISTRI": "Pathankot", "DISTRICT": "Gurdaspur", "STATE_UT": "Punjab", "C_CODE01": "0301000200030700", "LEVEL": "Village" }, "geometry": { "type": "Point", "coordinates": [ 75.459440121544944, 32.21838181026218 ] } },
{ "type": "Feature", "properties": { "VILLAGE_ID": 241, "NAME": "Beli Akalian", "BLOCK_NAME": "Pathankot", "SUB_DISTRI": "Pathankot", "DISTRICT": "Gurdaspur", "STATE_UT": "Punjab", "C_CODE01": "0301000200013100", "LEVEL": "Village" }, "geometry": { "type": "Point", "coordinates": [ 75.645768724054449, 32.213268886841149 ] } },
{ "type": "Feature", "properties": { "VILLAGE_ID": 242, "NAME": "Naushehra", "BLOCK_NAME": "Pathankot", "SUB_DISTRI": "Pathankot", "DISTRICT": "Gurdaspur", "STATE_UT": "Punjab", "C_CODE01": "0301000200024800", "LEVEL": "Village" }, "geometry": { "type": "Point", "coordinates": [ 75.527018293243458, 32.208661957274629 ] } },
{ "type": "Feature", "properties": { "VILLAGE_ID": 243, "NAME": "Targarh", "BLOCK_NAME": "Pathankot", "SUB_DISTRI": "Pathankot", "DISTRICT": "Gurdaspur", "STATE_UT": "Punjab", "C_CODE01": "0301000200020000", "LEVEL": "Village" }, "geometry": { "type": "Point", "coordinates": [ 75.544581368113342, 32.214735825250322 ] } },
{ "type": "Feature", "properties": { "VILLAGE_ID": 244, "NAME": "Darsopur", "BLOCK_NAME": "Pathankot", "SUB_DISTRI": "Pathankot", "DISTRICT": "Gurdaspur", "STATE_UT": "Punjab", "C_CODE01": "0301000200012900", "LEVEL": "Village" }, "geometry": { "type": "Point", "coordinates": [ 75.623286979646863, 32.214095223972578 ] } },
{ "type": "Feature", "properties": { "VILLAGE_ID": 245, "NAME": "Kotli Mughlan", "BLOCK_NAME": "Pathankot", "SUB_DISTRI": "Pathankot", "DISTRICT": "Gurdaspur", "STATE_UT": "Punjab", "C_CODE01": "0301000200020200", "LEVEL": "Village" }, "geometry": { "type": "Point", "coordinates": [ 75.573180123912607, 32.215216516155877 ] } },
{ "type": "Feature", "properties": { "VILLAGE_ID": 246, "NAME": "Sultanpur", "BLOCK_NAME": "Pathankot", "SUB_DISTRI": "Pathankot", "DISTRICT": "Gurdaspur", "STATE_UT": "Punjab", "C_CODE01": "0301000200024900", "LEVEL": "Village" }, "geometry": { "type": "Point", "coordinates": [ 75.53163365421527, 32.214920608034063 ] } },
{ "type": "Feature", "properties": { "VILLAGE_ID": 247, "NAME": "Chak Gajju", "BLOCK_NAME": "Narot Jaimal Singh", "SUB_DISTRI": "Pathankot", "DISTRICT": "Gurdaspur", "STATE_UT": "Punjab", "C_CODE01": "0301000200038200", "LEVEL": "Village" }, "geometry": { "type": "Point", "coordinates": [ 75.443955821561346, 32.213628664209061 ] } },
{ "type": "Feature", "properties": { "VILLAGE_ID": 248, "NAME": "Akhwara", "BLOCK_NAME": "Narot Jaimal Singh", "SUB_DISTRI": "Pathankot", "DISTRICT": "Gurdaspur", "STATE_UT": "Punjab", "C_CODE01": "0301000200037400", "LEVEL": "Village" }, "geometry": { "type": "Point", "coordinates": [ 75.411942729331017, 32.215147918025941 ] } },
{ "type": "Feature", "properties": { "VILLAGE_ID": 249, "NAME": "Nahar Ke Bir", "BLOCK_NAME": "Pathankot", "SUB_DISTRI": "Pathankot", "DISTRICT": "Gurdaspur", "STATE_UT": "Punjab", "C_CODE01": "0301000200018200", "LEVEL": "Village" }, "geometry": { "type": "Point", "coordinates": [ 75.603874391554228, 32.214129885243764 ] } },
{ "type": "Feature", "properties": { "VILLAGE_ID": 250, "NAME": "Chak  Koshalian", "BLOCK_NAME": "Narot Jaimal Singh", "SUB_DISTRI": "Pathankot", "DISTRICT": "Gurdaspur", "STATE_UT": "Punjab", "C_CODE01": "0301000200037700", "LEVEL": "Village" }, "geometry": { "type": "Point", "coordinates": [ 75.429902304735279, 32.212689927894914 ] } },
{ "type": "Feature", "properties": { "VILLAGE_ID": 251, "NAME": "Chak Akhawara", "BLOCK_NAME": "Narot Jaimal Singh", "SUB_DISTRI": "Pathankot", "DISTRICT": "Gurdaspur", "STATE_UT": "Punjab", "C_CODE01": "0301000200037500", "LEVEL": "Village" }, "geometry": { "type": "Point", "coordinates": [ 75.421271721291276, 32.215638740483953 ] } },
{ "type": "Feature", "properties": { "VILLAGE_ID": 252, "NAME": "Jhela Amda Shakargarh", "BLOCK_NAME": "Narot Jaimal Singh", "SUB_DISTRI": "Pathankot", "DISTRICT": "Gurdaspur", "STATE_UT": "Punjab", "C_CODE01": "0301000200030200", "LEVEL": "Village" }, "geometry": { "type": "Point", "coordinates": [ 75.491961009077954, 32.211661404777026 ] } },
{ "type": "Feature", "properties": { "VILLAGE_ID": 253, "NAME": "Samrala", "BLOCK_NAME": "Pathankot", "SUB_DISTRI": "Pathankot", "DISTRICT": "Gurdaspur", "STATE_UT": "Punjab", "C_CODE01": "0301000200020700", "LEVEL": "Village" }, "geometry": { "type": "Point", "coordinates": [ 75.591082800068122, 32.211881676249547 ] } },
{ "type": "Feature", "properties": { "VILLAGE_ID": 254, "NAME": "Chak Sahu", "BLOCK_NAME": "Narot Jaimal Singh", "SUB_DISTRI": "Pathankot", "DISTRICT": "Gurdaspur", "STATE_UT": "Punjab", "C_CODE01": "0301000200030300", "LEVEL": "Village" }, "geometry": { "type": "Point", "coordinates": [ 75.474696406338694, 32.210514026411232 ] } },
{ "type": "Feature", "properties": { "VILLAGE_ID": 255, "NAME": "Gidri", "BLOCK_NAME": "Narot Jaimal Singh", "SUB_DISTRI": "Pathankot", "DISTRICT": "Gurdaspur", "STATE_UT": "Punjab", "C_CODE01": "0301000200030500", "LEVEL": "Village" }, "geometry": { "type": "Point", "coordinates": [ 75.459465092154602, 32.210393273051146 ] } },
{ "type": "Feature", "properties": { "VILLAGE_ID": 256, "NAME": "Makhanpur", "BLOCK_NAME": "Narot Jaimal Singh", "SUB_DISTRI": "Pathankot", "DISTRICT": "Gurdaspur", "STATE_UT": "Punjab", "C_CODE01": "0301000200037200", "LEVEL": "Village" }, "geometry": { "type": "Point", "coordinates": [ 75.400041442119786, 32.211713019336699 ] } },
{ "type": "Feature", "properties": { "VILLAGE_ID": 257, "NAME": "Bharmal Jattan", "BLOCK_NAME": "Narot Jaimal Singh", "SUB_DISTRI": "Pathankot", "DISTRICT": "Gurdaspur", "STATE_UT": "Punjab", "C_CODE01": "0301000200037000", "LEVEL": "Village" }, "geometry": { "type": "Point", "coordinates": [ 75.38751633101441, 32.210244948715314 ] } },
{ "type": "Feature", "properties": { "VILLAGE_ID": 258, "NAME": "Chhani", "BLOCK_NAME": "Pathankot", "SUB_DISTRI": "Pathankot", "DISTRICT": "Gurdaspur", "STATE_UT": "Punjab", "C_CODE01": "0301000200027100", "LEVEL": "Village" }, "geometry": { "type": "Point", "coordinates": [ 75.519283561439224, 32.20788555272766 ] } },
{ "type": "Feature", "properties": { "VILLAGE_ID": 259, "NAME": "Chhani Gujjran", "BLOCK_NAME": "Narot Jaimal Singh", "SUB_DISTRI": "Pathankot", "DISTRICT": "Gurdaspur", "STATE_UT": "Punjab", "C_CODE01": "0301000200037100", "LEVEL": "Village" }, "geometry": { "type": "Point", "coordinates": [ 75.393003143748558, 32.206414362551648 ] } },
{ "type": "Feature", "properties": { "VILLAGE_ID": 260, "NAME": "Sokalgarh", "BLOCK_NAME": "Pathankot", "SUB_DISTRI": "Pathankot", "DISTRICT": "Gurdaspur", "STATE_UT": "Punjab", "C_CODE01": "0301000200020600", "LEVEL": "Village" }, "geometry": { "type": "Point", "coordinates": [ 75.577465276742146, 32.206215043415163 ] } },
{ "type": "Feature", "properties": { "VILLAGE_ID": 261, "NAME": "Balsua", "BLOCK_NAME": "Pathankot", "SUB_DISTRI": "Pathankot", "DISTRICT": "Gurdaspur", "STATE_UT": "Punjab", "C_CODE01": "0301000200020400", "LEVEL": "Village" }, "geometry": { "type": "Point", "coordinates": [ 75.557922928248146, 32.204280710552638 ] } },
{ "type": "Feature", "properties": { "VILLAGE_ID": 262, "NAME": "Bharyal Harchanda", "BLOCK_NAME": "Narot Jaimal Singh", "SUB_DISTRI": "Pathankot", "DISTRICT": "Gurdaspur", "STATE_UT": "Punjab", "C_CODE01": "0301000200037300", "LEVEL": "Village" }, "geometry": { "type": "Point", "coordinates": [ 75.409067844543728, 32.207614630764461 ] } },
{ "type": "Feature", "properties": { "VILLAGE_ID": 263, "NAME": "Aima Chahngan", "BLOCK_NAME": "Pathankot", "SUB_DISTRI": "Pathankot", "DISTRICT": "Gurdaspur", "STATE_UT": "Punjab", "C_CODE01": "0301000200012800", "LEVEL": "Village" }, "geometry": { "type": "Point", "coordinates": [ 75.624795357937501, 32.208491801673787 ] } },
{ "type": "Feature", "properties": { "VILLAGE_ID": 264, "NAME": "Phangarian", "BLOCK_NAME": "Pathankot", "SUB_DISTRI": "Pathankot", "DISTRICT": "Gurdaspur", "STATE_UT": "Punjab", "C_CODE01": "0301000200020500", "LEVEL": "Village" }, "geometry": { "type": "Point", "coordinates": [ 75.566896433503629, 32.204531524788301 ] } },
{ "type": "Feature", "properties": { "VILLAGE_ID": 265, "NAME": "Koshalian", "BLOCK_NAME": "Narot Jaimal Singh", "SUB_DISTRI": "Pathankot", "DISTRICT": "Gurdaspur", "STATE_UT": "Punjab", "C_CODE01": "0301000200037600", "LEVEL": "Village" }, "geometry": { "type": "Point", "coordinates": [ 75.421237729149595, 32.203673469325025 ] } },
{ "type": "Feature", "properties": { "VILLAGE_ID": 266, "NAME": "Gulpur", "BLOCK_NAME": "Pathankot", "SUB_DISTRI": "Pathankot", "DISTRICT": "Gurdaspur", "STATE_UT": "Punjab", "C_CODE01": "0301000200018100", "LEVEL": "Village" }, "geometry": { "type": "Point", "coordinates": [ 75.602614557996517, 32.207183167814676 ] } },
{ "type": "Feature", "properties": { "VILLAGE_ID": 267, "NAME": "Gajju Jagir", "BLOCK_NAME": "Narot Jaimal Singh", "SUB_DISTRI": "Pathankot", "DISTRICT": "Gurdaspur", "STATE_UT": "Punjab", "C_CODE01": "0301000200038300", "LEVEL": "Village" }, "geometry": { "type": "Point", "coordinates": [ 75.442935446013351, 32.204610712475478 ] } },
{ "type": "Feature", "properties": { "VILLAGE_ID": 268, "NAME": "Pathan Chak", "BLOCK_NAME": "Pathankot", "SUB_DISTRI": "Pathankot", "DISTRICT": "Gurdaspur", "STATE_UT": "Punjab", "C_CODE01": "0301000200020300", "LEVEL": "Village" }, "geometry": { "type": "Point", "coordinates": [ 75.546854875939388, 32.203592985485876 ] } },
{ "type": "Feature", "properties": { "VILLAGE_ID": 269, "NAME": "Naushenra Nalbandan", "BLOCK_NAME": "Pathankot", "SUB_DISTRI": "Pathankot", "DISTRICT": "Gurdaspur", "STATE_UT": "Punjab", "C_CODE01": "0301000200013300", "LEVEL": "Village" }, "geometry": { "type": "Point", "coordinates": [ 75.635671206978714, 32.192593155374475 ] } },
{ "type": "Feature", "properties": { "VILLAGE_ID": 270, "NAME": "Simbli", "BLOCK_NAME": "Pathankot", "SUB_DISTRI": "Pathankot", "DISTRICT": "Gurdaspur", "STATE_UT": "Punjab", "C_CODE01": "0301000200020800", "LEVEL": "Village" }, "geometry": { "type": "Point", "coordinates": [ 75.589614398352595, 32.203559433876457 ] } },
{ "type": "Feature", "properties": { "VILLAGE_ID": 271, "NAME": "Lassian", "BLOCK_NAME": "Narot Jaimal Singh", "SUB_DISTRI": "Pathankot", "DISTRICT": "Gurdaspur", "STATE_UT": "Punjab", "C_CODE01": "0301000200041200", "LEVEL": "Village" }, "geometry": { "type": "Point", "coordinates": [ 75.35975724632371, 32.205179481035529 ] } },
{ "type": "Feature", "properties": { "VILLAGE_ID": 272, "NAME": "Fatehgarh", "BLOCK_NAME": "Pathankot", "SUB_DISTRI": "Pathankot", "DISTRICT": "Gurdaspur", "STATE_UT": "Punjab", "C_CODE01": "0301000200017900", "LEVEL": "Village" }, "geometry": { "type": "Point", "coordinates": [ 75.613001312487356, 32.199250639686248 ] } },
{ "type": "Feature", "properties": { "VILLAGE_ID": 273, "NAME": "Jhela Amda Gurdaspur", "BLOCK_NAME": "Narot Jaimal Singh", "SUB_DISTRI": "Pathankot", "DISTRICT": "Gurdaspur", "STATE_UT": "Punjab", "C_CODE01": "0301000200030100", "LEVEL": "Village" }, "geometry": { "type": "Point", "coordinates": [ 75.49106609373348, 32.203372365092186 ] } },
{ "type": "Feature", "properties": { "VILLAGE_ID": 274, "NAME": "Rajpur Jattan", "BLOCK_NAME": "Narot Jaimal Singh", "SUB_DISTRI": "Pathankot", "DISTRICT": "Gurdaspur", "STATE_UT": "Punjab", "C_CODE01": "0301000200041100", "LEVEL": "Village" }, "geometry": { "type": "Point", "coordinates": [ 75.375807663249503, 32.204488442336881 ] } },
{ "type": "Feature", "properties": { "VILLAGE_ID": 275, "NAME": "Gajju Khalsa", "BLOCK_NAME": "Narot Jaimal Singh", "SUB_DISTRI": "Pathankot", "DISTRICT": "Gurdaspur", "STATE_UT": "Punjab", "C_CODE01": "0301000200038400", "LEVEL": "Village" }, "geometry": { "type": "Point", "coordinates": [ 75.431872164671532, 32.197688067383723 ] } },
{ "type": "Feature", "properties": { "VILLAGE_ID": 276, "NAME": "Sahu Chak", "BLOCK_NAME": "Narot Jaimal Singh", "SUB_DISTRI": "Pathankot", "DISTRICT": "Gurdaspur", "STATE_UT": "Punjab", "C_CODE01": "0301000200030400", "LEVEL": "Village" }, "geometry": { "type": "Point", "coordinates": [ 75.468159591150751, 32.203084243045218 ] } },
{ "type": "Feature", "properties": { "VILLAGE_ID": 277, "NAME": "Sharaf Chak", "BLOCK_NAME": "Narot Jaimal Singh", "SUB_DISTRI": "Pathankot", "DISTRICT": "Gurdaspur", "STATE_UT": "Punjab", "C_CODE01": "0301000200027400", "LEVEL": "Village" }, "geometry": { "type": "Point", "coordinates": [ 75.505520404543446, 32.199430499932255 ] } },
{ "type": "Feature", "properties": { "VILLAGE_ID": 278, "NAME": "Maira Mahantan", "BLOCK_NAME": "Pathankot", "SUB_DISTRI": "Pathankot", "DISTRICT": "Gurdaspur", "STATE_UT": "Punjab", "C_CODE01": "0301000200013200", "LEVEL": "Village" }, "geometry": { "type": "Point", "coordinates": [ 75.641412891823038, 32.202491041600283 ] } },
{ "type": "Feature", "properties": { "VILLAGE_ID": 279, "NAME": "Man Mangal", "BLOCK_NAME": "Narot Jaimal Singh", "SUB_DISTRI": "Pathankot", "DISTRICT": "Gurdaspur", "STATE_UT": "Punjab", "C_CODE01": "0301000200027300", "LEVEL": "Village" }, "geometry": { "type": "Point", "coordinates": [ 75.51262941521594, 32.201154021621946 ] } },
{ "type": "Feature", "properties": { "VILLAGE_ID": 280, "NAME": "Chhani Maqimpur", "BLOCK_NAME": "Pathankot", "SUB_DISTRI": "Pathankot", "DISTRICT": "Gurdaspur", "STATE_UT": "Punjab", "C_CODE01": "0301000200018000", "LEVEL": "Village" }, "geometry": { "type": "Point", "coordinates": [ 75.602288730833521, 32.198877716194765 ] } },
{ "type": "Feature", "properties": { "VILLAGE_ID": 281, "NAME": "Dalelpur", "BLOCK_NAME": "Narot Jaimal Singh", "SUB_DISTRI": "Pathankot", "DISTRICT": "Gurdaspur", "STATE_UT": "Punjab", "C_CODE01": "0301000200038600", "LEVEL": "Village" }, "geometry": { "type": "Point", "coordinates": [ 75.450926593369118, 32.202624500469156 ] } },
{ "type": "Feature", "properties": { "VILLAGE_ID": 282, "NAME": "Panjupur", "BLOCK_NAME": "Pathankot", "SUB_DISTRI": "Pathankot", "DISTRICT": "Gurdaspur", "STATE_UT": "Punjab", "C_CODE01": "0301000200017800", "LEVEL": "Village" }, "geometry": { "type": "Point", "coordinates": [ 75.62282953200922, 32.199841993022247 ] } },
{ "type": "Feature", "properties": { "VILLAGE_ID": 283, "NAME": "Adalatgarh", "BLOCK_NAME": "Narot Jaimal Singh", "SUB_DISTRI": "Pathankot", "DISTRICT": "Gurdaspur", "STATE_UT": "Punjab", "C_CODE01": "0301000200040400", "LEVEL": "Village" }, "geometry": { "type": "Point", "coordinates": [ 75.397904299350245, 32.194329919141914 ] } },
{ "type": "Feature", "properties": { "VILLAGE_ID": 284, "NAME": "Gotran Lahri", "BLOCK_NAME": "Pathankot", "SUB_DISTRI": "Pathankot", "DISTRICT": "Gurdaspur", "STATE_UT": "Punjab", "C_CODE01": "0301000200024700", "LEVEL": "Village" }, "geometry": { "type": "Point", "coordinates": [ 75.536238075881727, 32.201577712746605 ] } },
{ "type": "Feature", "properties": { "VILLAGE_ID": 285, "NAME": "Bharial", "BLOCK_NAME": "Dinanagar", "SUB_DISTRI": "Gurdaspur", "DISTRICT": "Gurdaspur", "STATE_UT": "Punjab", "C_CODE01": "0301000300041300", "LEVEL": "Village" }, "geometry": { "type": "Point", "coordinates": [ 75.348622573305988, 32.198304911844012 ] } },
{ "type": "Feature", "properties": { "VILLAGE_ID": 286, "NAME": "Akhrota", "BLOCK_NAME": "Pathankot", "SUB_DISTRI": "Pathankot", "DISTRICT": "Gurdaspur", "STATE_UT": "Punjab", "C_CODE01": "0301000200027200", "LEVEL": "Village" }, "geometry": { "type": "Point", "coordinates": [ 75.519244879650429, 32.195552669141939 ] } },
{ "type": "Feature", "properties": { "VILLAGE_ID": 287, "NAME": "Darsopur", "BLOCK_NAME": "Narot Jaimal Singh", "SUB_DISTRI": "Pathankot", "DISTRICT": "Gurdaspur", "STATE_UT": "Punjab", "C_CODE01": "0301000200030000", "LEVEL": "Village" }, "geometry": { "type": "Point", "coordinates": [ 75.475333167589, 32.196513439371515 ] } },
{ "type": "Feature", "properties": { "VILLAGE_ID": 288, "NAME": "Kajley", "BLOCK_NAME": "Narot Jaimal Singh", "SUB_DISTRI": "Pathankot", "DISTRICT": "Gurdaspur", "STATE_UT": "Punjab", "C_CODE01": "0301000200040800", "LEVEL": "Village" }, "geometry": { "type": "Point", "coordinates": [ 75.380930403362072, 32.201255133229239 ] } },
{ "type": "Feature", "properties": { "VILLAGE_ID": 289, "NAME": "Kataru Chak", "BLOCK_NAME": "Pathankot", "SUB_DISTRI": "Pathankot", "DISTRICT": "Gurdaspur", "STATE_UT": "Punjab", "C_CODE01": "0301000200020900", "LEVEL": "Village" }, "geometry": { "type": "Point", "coordinates": [ 75.580901635814314, 32.190647953269306 ] } },
{ "type": "Feature", "properties": { "VILLAGE_ID": 290, "NAME": "Rajo Beli", "BLOCK_NAME": "Narot Jaimal Singh", "SUB_DISTRI": "Pathankot", "DISTRICT": "Gurdaspur", "STATE_UT": "Punjab", "C_CODE01": "0301000200040300", "LEVEL": "Village" }, "geometry": { "type": "Point", "coordinates": [ 75.410257992746935, 32.199198490972911 ] } },
{ "type": "Feature", "properties": { "VILLAGE_ID": 291, "NAME": "Narainpur", "BLOCK_NAME": "Narot Jaimal Singh", "SUB_DISTRI": "Pathankot", "DISTRICT": "Gurdaspur", "STATE_UT": "Punjab", "C_CODE01": "0301000200038700", "LEVEL": "Village" }, "geometry": { "type": "Point", "coordinates": [ 75.459492539441371, 32.198314797754442 ] } },
{ "type": "Feature", "properties": { "VILLAGE_ID": 292, "NAME": "Rajpur Rajputan", "BLOCK_NAME": "Narot Jaimal Singh", "SUB_DISTRI": "Pathankot", "DISTRICT": "Gurdaspur", "STATE_UT": "Punjab", "C_CODE01": "0301000200040200", "LEVEL": "Village" }, "geometry": { "type": "Point", "coordinates": [ 75.404728042988111, 32.187760640102901 ] } },
{ "type": "Feature", "properties": { "VILLAGE_ID": 293, "NAME": "Mastgarh", "BLOCK_NAME": "Narot Jaimal Singh", "SUB_DISTRI": "Pathankot", "DISTRICT": "Gurdaspur", "STATE_UT": "Punjab", "C_CODE01": "0301000200040700", "LEVEL": "Village" }, "geometry": { "type": "Point", "coordinates": [ 75.386849156416602, 32.19748234274325 ] } },
{ "type": "Feature", "properties": { "VILLAGE_ID": 294, "NAME": "Ismailpur", "BLOCK_NAME": "Narot Jaimal Singh", "SUB_DISTRI": "Pathankot", "DISTRICT": "Gurdaspur", "STATE_UT": "Punjab", "C_CODE01": "0301000200040900", "LEVEL": "Village" }, "geometry": { "type": "Point", "coordinates": [ 75.3773661534795, 32.198315452924568 ] } },
{ "type": "Feature", "properties": { "VILLAGE_ID": 295, "NAME": "Tash", "BLOCK_NAME": "Narot Jaimal Singh", "SUB_DISTRI": "Pathankot", "DISTRICT": "Gurdaspur", "STATE_UT": "Punjab", "C_CODE01": "0301000200040500", "LEVEL": "Village" }, "geometry": { "type": "Point", "coordinates": [ 75.391499096684839, 32.191734665195149 ] } },
{ "type": "Feature", "properties": { "VILLAGE_ID": 296, "NAME": "Rajpur Chib", "BLOCK_NAME": "Dinanagar", "SUB_DISTRI": "Gurdaspur", "DISTRICT": "Gurdaspur", "STATE_UT": "Punjab", "C_CODE01": "0301000300041400", "LEVEL": "Village" }, "geometry": { "type": "Point", "coordinates": [ 75.357883331958348, 32.196280099944985 ] } },
{ "type": "Feature", "properties": { "VILLAGE_ID": 297, "NAME": "Dibku", "BLOCK_NAME": "Pathankot", "SUB_DISTRI": "Pathankot", "DISTRICT": "Gurdaspur", "STATE_UT": "Punjab", "C_CODE01": "0301000200023900", "LEVEL": "Village" }, "geometry": { "type": "Point", "coordinates": [ 75.574951540744536, 32.194198946993801 ] } },
{ "type": "Feature", "properties": { "VILLAGE_ID": 298, "NAME": "Dhalorian", "BLOCK_NAME": "Pathankot", "SUB_DISTRI": "Pathankot", "DISTRICT": "Gurdaspur", "STATE_UT": "Punjab", "C_CODE01": "0301000200024100", "LEVEL": "Village" }, "geometry": { "type": "Point", "coordinates": [ 75.564637335119471, 32.196662846681804 ] } },
{ "type": "Feature", "properties": { "VILLAGE_ID": 299, "NAME": "Baironpur", "BLOCK_NAME": "Narot Jaimal Singh", "SUB_DISTRI": "Pathankot", "DISTRICT": "Gurdaspur", "STATE_UT": "Punjab", "C_CODE01": "0301000200027500", "LEVEL": "Village" }, "geometry": { "type": "Point", "coordinates": [ 75.500973259748562, 32.196431741895204 ] } },
{ "type": "Feature", "properties": { "VILLAGE_ID": 300, "NAME": "Nangal Farida", "BLOCK_NAME": "Narot Jaimal Singh", "SUB_DISTRI": "Pathankot", "DISTRICT": "Gurdaspur", "STATE_UT": "Punjab", "C_CODE01": "0301000200027600", "LEVEL": "Village" }, "geometry": { "type": "Point", "coordinates": [ 75.494751927985419, 32.190049546481134 ] } },
{ "type": "Feature", "properties": { "VILLAGE_ID": 301, "NAME": "Shahpur", "BLOCK_NAME": "Narot Jaimal Singh", "SUB_DISTRI": "Pathankot", "DISTRICT": "Gurdaspur", "STATE_UT": "Punjab", "C_CODE01": "0301000200041000", "LEVEL": "Village" }, "geometry": { "type": "Point", "coordinates": [ 75.373219597465479, 32.196467208590597 ] } },
{ "type": "Feature", "properties": { "VILLAGE_ID": 302, "NAME": "Toor", "BLOCK_NAME": "Dinanagar", "SUB_DISTRI": "Gurdaspur", "DISTRICT": "Gurdaspur", "STATE_UT": "Punjab", "C_CODE01": "0301000300041700", "LEVEL": "Village" }, "geometry": { "type": "Point", "coordinates": [ 75.364274344021581, 32.193962546002837 ] } },
{ "type": "Feature", "properties": { "VILLAGE_ID": 303, "NAME": "Rattangarh", "BLOCK_NAME": "Narot Jaimal Singh", "SUB_DISTRI": "Pathankot", "DISTRICT": "Gurdaspur", "STATE_UT": "Punjab", "C_CODE01": "0301000200029900", "LEVEL": "Village" }, "geometry": { "type": "Point", "coordinates": [ 75.48888871282935, 32.194595274583428 ] } },
{ "type": "Feature", "properties": { "VILLAGE_ID": 304, "NAME": "Baknaur", "BLOCK_NAME": "Narot Jaimal Singh", "SUB_DISTRI": "Pathankot", "DISTRICT": "Gurdaspur", "STATE_UT": "Punjab", "C_CODE01": "0301000200038800", "LEVEL": "Village" },